     3.04           OBSERVATION DATA    M: Mixed            RINEX VERSION / TYPE
Geo++ RINEX Logger  Geo++               20250326 171714 UTC PGM / RUN BY / DATE
************************************************************COMMENT
This file was generated by the Geo++ RINEX Logger App       COMMENT
for Android devices (Version 2.1.8). If you encounter       COMMENT
any issues, please send an email to android@geopp.de        COMMENT
Filtering Mode: BEST                                        COMMENT
************************************************************COMMENT
Hardware:       Broadcom, BCM4776, GLL ver. 154.20.24 616640COMMENT
Geo++                                                       MARKER NAME
GEODETIC                                                    MARKER TYPE
Geo++               Geo++                                   OBSERVER / AGENCY
NA                  NA                  NA                  REC # / TYPE / VERS
NA                  NA                                      ANT # / TYPE
  3741344.0027   669769.2604  5104833.6260                  APPROX POSITION XYZ
        0.0000        0.0000        0.0000                  ANTENNA: DELTA H/E/N
G    8 C1C L1C D1C S1C C5Q L5Q D5Q S5Q                      SYS / # / OBS TYPES
R    4 C1C L1C D1C S1C                                      SYS / # / OBS TYPES
E   12 C1B L1B D1B S1B C1C L1C D1C S1C C5Q L5Q D5Q S5Q      SYS / # / OBS TYPES
C   12 C2I L2I D2I S2I C1D L1D D1D S1D C5P L5P D5P S5P      SYS / # / OBS TYPES
J    8 C1C L1C D1C S1C C5Q L5Q D5Q S5Q                      SYS / # / OBS TYPES
  2025     3    26    17    17   32.0002690     GPS         TIME OF FIRST OBS
 24 R01  1 R02 -4 R03  5 R04  6 R05  1 R06 -4 R07  5 R08  6 GLONASS SLOT / FRQ #
    R09 -2 R10 -7 R11  0 R12 -1 R13 -2 R14 -7 R15  0 R16 -1 GLONASS SLOT / FRQ #
    R17  4 R18 -3 R19  3 R20  2 R21  4 R22 -3 R23  3 R24  2 GLONASS SLOT / FRQ #
G L1C                                                       SYS / PHASE SHIFT
G L5Q -0.25000                                              SYS / PHASE SHIFT
R L1C                                                       SYS / PHASE SHIFT
E L1B                                                       SYS / PHASE SHIFT
E L1C +0.50000                                              SYS / PHASE SHIFT
E L5Q -0.25000                                              SYS / PHASE SHIFT
C L2I                                                       SYS / PHASE SHIFT
J L1C                                                       SYS / PHASE SHIFT
J L5Q -0.25000                                              SYS / PHASE SHIFT
 C1C    0.000 C1P    0.000 C2C    0.000 C2P    0.000        GLONASS COD/PHS/BIS
                                                            END OF HEADER
> 2025  3 26 17 17 32.0002690  0 22
G32  22124965.805   116267479.6571        303.977          41.600    22124982.593                         227.073          21.165  
G01                                                                  20805079.443                        1419.454          20.081  
G03                                                                  22480640.776                        2636.192          17.987  
G08  21846391.458   114803561.2081      -2753.068          36.894    21846419.638                       -2053.746          24.518  
G10  23314128.265   122516570.4651      -2838.734          46.905    23314139.357    91489689.8701      -2120.024          34.360  
G27                                                                  24695381.543                       -2804.631          25.983  
G14  23275905.026   122315706.0291       -309.548          37.493    23275924.513    91339726.9911       -231.438          39.385  
E18                                                                                                                                  17797738.382                         448.013          22.057  
E03                                                                  25210224.125   132480621.0561        213.945          38.206    25210242.712                         157.231          18.188  
E21                                                                  26753161.172   140588810.6871      -2393.072          27.364    26753174.663                       -1787.393          18.189  
E23                                                                  26221185.751   137793260.3141       -107.159          29.623    26221202.539   102897630.4081        -80.042          33.809  
E08                                                                  25770009.194   135422312.2211       2772.220          43.208    25770026.582   101127118.8411       2070.562          28.256  
E26                                                                                                                                  26245579.863   102993292.2651       1940.846          30.842  
E13                                                                  23323145.722   122563957.3211        603.213          34.261    23323161.911                         450.062          26.868  
E15                                                                  25031736.689   131542663.2721      -1813.463          38.157    25031746.283                       -1355.801          16.123  
C32  24798640.558   129133028.2541       3474.829          33.304                                                                    24798659.445    97315266.1851       2617.115          28.060  
C33  23989435.060   124919283.5531      -2156.223          42.070                                                                    23989474.932    94139852.0031      -1624.667          31.444  
C41  22239822.891   115808593.4141        827.040          40.751                                                                    22239844.776                         623.694          25.680  
C27                                                                                                                                  21564028.034                        -491.835          19.452  
C28  24002769.229   124988717.6161      -2712.761          43.553                                                                    24002788.116    94192095.5351      -2044.663          23.337  
C13  40124634.194   208939499.2941       -901.230          41.933                                                                                                                                  
C30                                                                                                                                  22939521.999    90019611.0581       1736.630          28.337  
> 2025  3 26 17 17 33.0002691  0 22
G32  22124936.125   116267333.396         146.590          43.701    22124954.713                         109.326          22.843  
G01                                                                  20804740.978                        1305.058          20.848  
G03                                                                  22479996.522                        2519.192          20.913  
G08  21846944.575   114806471.461       -2909.827          37.778    21846971.556                       -2172.437          21.956  
G10  23314698.170   122519566.386       -2994.842          47.154    23314708.963    91491927.123       -2236.977          33.933  
G27  24696098.347   129778872.3251      -3912.669          33.071    24696127.727    96912903.8591      -2922.538          29.285  
G14  23275998.262   122316173.099        -467.037          37.749    23276014.151    91340075.713        -348.432          40.105  
E18                                                                                                                                  17797653.841                         330.633          21.322  
E03                                                                  25210217.829   132480564.343          57.308          41.058    25210231.920                          38.728          13.136  
E21                                                                                                                                  26753660.027                       -1904.162          20.432  
E23                                                                  26221244.210   137793525.190        -264.869          27.886    26221252.904   102897828.139        -197.180          34.301  
E08                                                                  25769513.937   135419697.265        2615.346          42.572    25769527.727   101125166.172        1952.778          32.580  
E26                                                                                                                                  26245115.784   102991468.975        1823.924          30.298  
E13                                                                  23323059.082   122563511.088         446.934          34.244    23323075.871    91524763.1731        333.884          29.700  
E15                                                                  25032109.631   131544633.989       -1969.940          40.081    25032123.122                       -1471.072          20.391  
C32  24797990.309   129129711.218        3317.789          32.257                                                                    24798022.087    97312766.078        2500.179          25.465  
C33  23989878.453   124921595.638       -2311.600          40.938                                                                    23989918.625    94141594.511       -1742.262          30.659  
C41  22239694.580   115807922.429         671.681          41.312                                                                    22239715.565    87273422.2881        506.293          27.185  
C27                                                                                                                                  21564181.528    84622486.3681       -608.334          24.008  
C28  24003319.348   124991586.352       -2868.098          43.978                                                                    24003337.335    94194257.390       -2161.941          27.013  
C13  40124836.554   208940555.983       -1055.960          41.332                                                                                                                                  
C30                                                                                                                                  22939109.785    90017991.424        1620.176          28.699  
> 2025  3 26 17 17 34.0002693  0 22
G32  22124934.327   116267344.581         -10.803          42.197    22124956.811    86823083.0001         -7.911          26.311  
G01                                                                  20804440.585    81641094.6131       1186.661          30.850  
G03                                                                  22479387.044    88213939.4351       2402.766          25.450  
G08  21847528.870   114809538.766       -3066.469          36.866    21847555.852                       -2290.141          19.477  
G10  23315296.856   122522719.305       -3152.551          46.035    23315310.047    91494281.505       -2353.518          34.451  
G27  24696871.512   129782942.783       -4069.321          36.085    24696901.491    96915943.255       -3037.715          25.352  
G14  23276121.476   122316797.440        -624.011          40.403    23276132.269    91340541.963        -466.085          41.014  
E18                                                                                                                                  17797598.979                         213.668          25.058  
E03                                                                  25210238.815   132480664.805        -100.116          41.616    25210250.807                         -78.307          16.913  
E23                                                                  26221310.464   137793947.227        -420.396          30.751    26221332.349   102898143.261        -314.848          36.196  
E08                                                                  25769042.663   135417239.275        2458.055          41.855    25769060.351   101123330.716        1835.553          32.069  
E26                                                                                                                                  26244680.486   102989762.814        1706.491          34.561  
E13                                                                  23323002.122   122563221.855         289.524          35.113    23323021.908    91524547.267         216.431          29.289  
E15                                                                                                                                  25032531.439    98233009.8031      -1589.949          24.761  
C32  24797381.430   129126549.167        3162.462          30.334                                                                    24797415.606                        2383.158          23.109  
C33  23990355.123   124924063.292       -2467.196          43.865                                                                    23990392.897    94143454.175       -1859.487          31.780  
C41  22239596.248   115807407.265         515.781          40.239                                                                    22239617.233    87273034.172         388.233          29.370  
C27                                                                                                                                  21564367.099    84623212.300        -725.598          25.258  
C28  24003903.044   124994610.674       -3023.990          43.172                                                                    24003916.834    94196536.401       -2278.652          27.493  
C13  40125071.591   208941767.910       -1211.265          41.963                                                                                                                                  
C30  22938711.660   119447890.2951       1993.861          37.482                                                                    22938726.950    90016488.985        1502.459          33.257  
C14  25868661.298   134704907.6141      -3324.806          39.710                                                                                                                                  
> 2025  3 26 17 17 35.0002694  0 22
G32  22124908.844   116267198.074         146.525          43.080    22124928.930    86822973.651         109.564          25.627  
G01                                                                  20804108.715    81639789.713        1304.979          33.181  
G03                                                                  22478745.189    88211418.785        2520.867          26.643  
G08                                                                  21848108.369                       -2172.625          24.968  
G10  23315870.059   122525714.104       -2994.666          45.661    23315879.952    91496517.923       -2236.089          34.034  
G27  24697617.395   129786854.983       -3912.188          35.448    24697645.276    96918864.937       -2921.385          28.827  
G14  23276209.615   122317264.183        -466.541          39.743    23276220.708    91340890.487        -348.339          40.724  
E18                                                                  17797499.747    93526491.4601        441.890          28.859    17797512.638                         329.818          29.973  
E03                                                                  25210228.622   132480607.487          57.514          41.292    25210241.813                          40.691          16.952  
E23                                                                  26221359.331                        -256.104          28.404    26221382.415   102898340.634        -197.407          36.573  
E08                                                                  25768544.108   135414623.324        2616.176          42.259    25768562.695   101121377.245        1953.481          29.813  
E26                                                                                                                                  26244215.508   102987938.503        1824.622          35.165  
E13                                                                  23322915.781   122562774.561         447.736          35.487    23322936.467    91524213.290         334.111          31.097  
E15                                                                  25032891.190   131548731.2361      -1969.292          40.583    25032905.880                       -1470.830          23.952  
C32  24796757.862   129123230.392        3319.054          37.989                                                                    24796777.648                        2500.935          25.525  
C33  23990798.216   124926374.585       -2311.184          43.486                                                                    23990836.889    94145195.927       -1741.887          32.101  
C41  22239466.738   115806735.950         671.384          39.157                                                                    22239488.323    87272528.187         506.012          29.817  
C27                                                                                                                                  21564521.492    84623820.422        -607.768          27.079  
C28  24004451.964   124997478.302       -2867.423          43.090                                                                    24004468.152    94198697.499       -2160.632          25.780  
C13  40125274.251   208942823.012       -1054.824          42.216                                                                                                                                  
C14  25869271.676   134708076.512       -3168.646          39.797                                                                                                                                  
C30  22938300.945   119445740.299        2150.215          37.423                                                                    22938314.136    90014868.762        1620.400          34.151  
> 2025  3 26 17 17 36.0002695  0 23
G32  22124883.362   116267051.640         146.138          43.455    22124901.050    86822864.293         109.199          26.170  
G01  20803750.763   109324447.7461       1747.543          35.869    20803776.545    81638484.652        1305.118          33.817  
G03                                                                  22478101.834    88208898.025        2520.530          31.097  
G08  21848645.298   114815357.6261      -2909.152          39.019    21848661.786    85738826.0341      -2172.987          25.535  
G10  23316437.266   122528708.516       -2994.381          45.685    23316449.558    91498754.050       -2236.393          34.118  
G27  24698359.082   129790766.723       -3912.039          34.424    24698389.061    96921785.949       -2921.187          28.861  
G14  23276294.756   122317730.997        -467.179          39.028    23276310.346    91341239.082        -348.986          40.847  
E18                                                                                                                                  17797428.696    69840901.1001        329.189          31.190  
E03                                                                  25210217.829   132480550.123          57.078          40.926    25210229.221                          42.025          16.885  
E21                                                                  26755126.012                       -2549.661          37.335                                                                  
E23                                                                  26221402.501                        -263.171          26.939    26221433.080   102898537.883        -197.523          36.845  
E08                                                                  25768045.853   135412007.064        2616.326          42.033    25768065.040   101119423.581        1953.224          29.365  
E26                                                                                                                                  26243751.129   102986113.820        1824.725          35.385  
E13                                                                  23322831.540   122562327.010         447.557          35.301    23322851.926    91523879.030         334.458          31.641  
E15                                                                  25033265.631   131550700.410       -1969.116          40.577    25033280.321    98235951.1121      -1470.716          24.560  
C32  24796122.302   129119911.376        3319.108          41.831                                                                    24796142.088    97305377.9721       2500.748          25.673  
C33  23991242.808   124928685.620       -2311.082          43.254                                                                    23991280.582    94146937.478       -1741.383          32.044  
C41  22239336.328   115806064.523         671.186          39.143                                                                    22239359.412    87272022.217         505.746          30.839  
C27                                                                                                                                  21564678.883    84624428.432        -607.936          27.968  
C28  24005002.682   125000345.607       -2867.298          42.679                                                                    24005019.771    94200858.217       -2160.577          25.176  
C13  40125477.810   208943877.451       -1054.159          41.927                                                                                                                                  
C14  25869879.355   134711244.929       -3168.310          39.745                                                                                                                                  
C30  22937887.831   119443590.052        2150.132          37.076                                                                    22937901.022    90013248.330        1620.379          34.290  
> 2025  3 26 17 17 37.0002696  0 23
G32  22124858.779   116266905.471         145.983          43.927    22124873.169    86822755.087         109.219          25.970  
G01                                                                  20803443.476    81637179.674        1304.839          33.760  
G03                                                                  22477459.678    88206377.105        2520.887          31.930  
G08  21849199.614   114818266.940       -2909.320          38.629    21849217.302    85740998.471       -2172.196          24.030  
G10  23317009.270   122531702.747       -2994.221          45.554    23317019.164    91500989.966       -2236.091          33.967  
G27  24699103.167   129794678.047       -3911.410          34.054    24699133.146    96924706.746       -2920.961          29.249  
G14  23276383.495   122318198.031        -467.087          39.174    23276399.084    91341587.809        -348.966          40.594  
E18                                                                                                                                  17797345.054    69840572.402         328.206          31.811  
E03                                                                  25210206.137   132480492.838          57.193          41.130    25210217.829                          41.959          17.337  
E21                                                                  26755611.376   140601684.9591      -2549.389          37.360                                                                  
E23                                                                  26221453.466   137794742.7871       -265.164          26.472    26221483.445   102898735.190        -197.272          36.794  
E08                                                                  25767549.697   135409390.727        2616.367          42.064    25767565.586   101117469.789        1953.624          28.461  
E26                                                                                                                                  26243285.551   102984288.938        1824.934          35.199  
E13                                                                  23322744.600   122561879.307         447.645          35.676    23322765.885    91523544.728         334.314          32.131  
E15                                                                  25033639.772   131552669.373       -1968.896          40.953    25033655.961    98237421.351       -1469.991          24.236  
C32  24795483.144   129116592.147        3319.354          41.492                                                                    24795502.931    97302876.481        2501.734          24.607  
C33  23991687.101   124930996.657       -2311.044          43.233                                                                    23991724.575    94148679.120       -1741.597          32.414  
C41  22239205.618   115805393.252         671.126          38.976                                                                    22239230.801    87271516.338         505.748          30.538  
C27                                                                                                                                  21564832.377    84625036.534        -608.076          28.409  
C28  24005556.999   125003212.783       -2867.085          43.057                                                                    24005570.190    94203018.902       -2160.220          24.434  
C13  40125679.270   208944931.536       -1053.833          41.889                                                                                                                                  
C30  22937474.417   119441439.720        2150.439          37.574                                                                    22937487.608    90011627.799        1620.579          34.444  
C14  25870487.934   134714413.187       -3168.315          39.729                                                                                                                                  
> 2025  3 26 17 17 38.0002697  0 23
G32  22124836.295   116266759.431         146.039          44.650    22124845.588    86822646.063         108.995          26.420  
G01                                                                  20803111.306    81635874.529        1305.194          33.799  
G03                                                                  22476818.123    88203856.017        2521.710          32.263  
G08                                                                  21849770.119    85743170.888       -2171.733          25.279  
G10  23317575.578   122534696.686       -2993.778          45.656    23317589.069    91503225.739       -2235.939          34.153  
G27  24699847.851   129798588.923       -3910.876          33.955    24699877.531    96927627.272       -2920.671          29.367  
G14  23276474.932   122318665.203        -467.105          38.898    23276488.123    91341936.640        -348.726          41.047  
E18                                                                                                                                  17797262.012    69840244.467         327.546          31.412  
E03                                                                  25210193.246   132480435.583          57.198          40.973    25210208.236                          42.863          18.115  
E21                                                                  26756098.538   140604234.130       -2548.958          37.503                                                                  
E23                                                                                                                                  26221534.110   102898932.563        -197.308          37.024  
E08                                                                  25767050.242   135406774.158        2616.665          42.023    25767067.630   101115515.842        1953.906          28.109  
E26                                                                                                                                  26242819.974   102982463.709        1825.631          35.401  
E13                                                                  23322658.559   122561431.387         448.025          35.501    23322681.044    91523210.206         334.940          32.267  
E15                                                                  25034016.911   131554637.994       -1968.359          41.102    25034031.001    98238891.497       -1470.081          24.117  
C32  24794847.584   129113272.653        3319.780          41.602                                                                    24794865.872    97300374.870        2502.434          24.598  
C33  23992132.892   124933307.583       -2310.847          43.511                                                                    23992168.268    94150420.634       -1741.402          32.358  
C41  22239080.005   115804722.028         671.196          38.988                                                                    22239100.991    87271010.498         505.781          30.408  
C27                                                                                                                                  21564986.471    84625644.575        -608.263          28.842  
C28  24006108.017   125006079.693       -2866.750          42.980                                                                    24006119.709    94205179.449       -2159.927          24.199  
C13  40125879.831   208945985.125       -1053.555          41.746                                                                                                                                  
C30                                                                                                                                  22937075.093    90010007.201        1620.722          34.160  
C14  25871096.812   134717581.086       -3167.653          40.185                                                                                                                                  
> 2025  3 26 17 17 39.0002698  0 23
G32  22124807.814   116266613.674         145.490          44.780    22124818.307    86822537.321         108.255          26.501  
G01                                                                  20802779.136    81634569.412        1305.276          33.882  
G03  22476154.682   118112989.3931       3376.092          40.667    22476174.768    88201334.950        2521.218          32.367  
G08                                                                  21850323.236    85745343.417       -2172.324          25.902  
G10  23318146.383   122537690.426       -2993.566          45.399    23318158.974    91505461.301       -2235.640          34.130  
G27  24700592.236   129802499.473       -3910.267          34.375    24700621.316    96930547.436       -2919.793          29.267  
G14  23276565.169   122319132.618        -467.586          38.483    23276576.561    91342285.717        -349.276          40.871  
E18                                                                                                                                  17797178.370    69839917.429         326.446          31.369  
E03                                                                  25210182.154   132480378.410          57.154          41.146    25210195.645                          42.844          13.064  
E21                                                                  26756583.603   140606783.211       -2549.201          37.328                                                                  
E23                                                                                                                                  26221584.475   102899130.019        -197.585          37.180  
E08                                                                  25766549.889   135404157.499        2616.559          41.689    25766570.574   101113561.850        1953.795          28.615  
E26                                                                                                                                  26242354.996   102980638.366        1825.222          35.406  
E13                                                                  23322571.919   122560983.308         448.273          35.552    23322595.603    91522875.660         334.588          32.299  
E15                                                                  25034389.553   131556606.438       -1968.539          41.052    25034405.442    98240361.424       -1470.008          24.830  
C32  24794207.827   129109952.958        3319.707          41.065                                                                    24794227.314    97297873.190        2501.653          24.524  
C33  23992575.386   124935618.470       -2310.969          43.632                                                                    23992611.960    94152162.149       -1741.461          32.088  
C41  22238950.795   115804050.966         670.842          39.012                                                                    22238972.979    87270504.843         505.372          30.389  
C27                                                                                                                                  21565141.763    84626252.603        -607.832          28.126  
C28  24006657.537   125008946.423       -2866.629          42.941                                                                    24006671.927    94207339.951       -2160.932          24.595  
C13  40126079.793   208947038.247       -1053.039          41.620                                                                                                                                  
C14  25871706.290   134720748.791       -3167.678          40.404                                                                                                                                  
C30                                                                                                                                  22936662.279    90008386.542        1620.677          34.453  
> 2025  3 26 17 17 40.0002699  0 23
G32  22124780.233   116266468.363         145.010          45.104    22124791.026    86822428.755         107.827          26.414  
G01                                                                  20802446.366    81633264.465        1304.829          34.003  
G03  22475511.627   118109613.399        3375.885          40.329    22475532.912    88198813.974        2520.595          32.192  
G08                                                                  21850877.252    85747516.048       -2172.710          25.852  
G10  23318715.989   122540684.188       -2993.624          45.250    23318728.880    91507696.918       -2235.706          34.122  
G27  24701340.818   129806409.928       -3910.167          34.126    24701365.101    96933467.582       -2919.897          29.662  
G14  23276642.815   122319600.477        -468.073          37.793    23276666.499    91342635.112        -349.745          40.850  
E18                                                                                                                                  17797095.327    69839591.403         325.067          31.294  
E03                                                                  25210167.164   132480321.610          56.529          41.252    25210185.152                          41.772          18.500  
E21                                                                  26757066.568   140609332.335       -2549.295          36.760    26757089.952   105000567.4731      -1903.577          33.817  
E23                                                                                                                                  26221634.540   102899327.712        -197.992          37.051  
E08                                                                  25766053.432   135401540.948        2616.532          41.650    25766072.919   101111607.971        1953.733          28.220  
E26                                                                  26241866.034   137901935.8491       2444.742          30.129    26241890.018   102978812.893        1825.291          35.274  
E13                                                                  23322486.479   122560535.375         447.749          35.951    23322510.762    91522541.115         334.731          32.035  
E15                                                                  25034765.193   131558574.851       -1968.435          41.111    25034780.182    98241831.346       -1469.895          25.657  
C32  24793571.368   129106633.322        3319.600          41.098                                                                    24793589.955    97295371.625        2501.008          24.372  
C33  23993017.879   124937929.573       -2311.190          43.306                                                                    23993055.653    94153903.799       -1741.639          32.360  
C41  22238820.985   115803380.278         670.564          39.025                                                                    22238844.368    87269999.420         504.903          30.543  
C27                                                                                                                                  21565297.655    84626860.927        -608.157          28.328  
C28  24007206.757   125011813.231       -2866.856          42.576                                                                    24007222.646    94209500.273       -2160.031          24.613  
C13  40126282.453   208948091.169       -1052.899          41.245                                                                                                                                  
C14  25872314.869   134723916.458       -3167.682          40.367                                                                                                                                  
C30                                                                                                                                  22936249.465    90006765.966        1620.496          34.573  
> 2025  3 26 17 17 41.0002701  0 23
G32  22124786.529   116266480.974         -12.841          45.392    22124792.525    86822438.227         -10.000          25.490  
G01  20802127.986   109315867.3091       1589.803          36.270    20802143.576    81632077.213        1187.348          33.709  
G03  22474898.252   118106394.943        3218.637          40.280    22474920.436    88196410.518        2403.725          32.157  
G08                                                                  21851461.548    85749806.397       -2290.505          25.555  
G10  23319318.272   122543835.425       -3151.147          45.316    23319327.865    91510050.106       -2353.193          33.664  
G27  24702116.680   129810477.747       -4067.637          34.553    24702139.165    96936505.216       -3037.364          29.194  
G14  23276763.332   122320226.248        -625.926          37.661    23276785.217    91343102.391        -467.459          40.910  
E18                                                                  17797028.773    93524018.4521        277.148          29.793    17797043.163    69839383.939         206.872          31.526  
E03                                                                  25210187.550   132480422.545        -100.943          41.218    25210206.437                         -75.220          16.271  
E21                                                                  26757582.211   140612038.978       -2706.926          36.286    26757605.595   105002588.632       -2021.049          34.547  
E23                                                                                                                                  26221714.885   102899643.206        -315.732          36.738  
E08                                                                  25765585.756   135399081.946        2459.045          41.936    25765604.643   101109771.675        1835.990          28.516  
E26                                                                  26241434.633   137899648.634        2287.442          30.443    26241454.419   102977104.900        1707.890          35.082  
E13                                                                  23322431.017   122560244.949         290.277          35.458    23322456.200    91522324.276         216.778          32.015  
E15                                                                  25035168.713   131560700.721       -2125.751          41.025    25035184.902    98243418.857       -1587.630          25.405  
C32  24792958.292   129103469.726        3163.668          40.635                                                                    24792983.475    97292987.343        2384.552          24.936  
C33  23993490.652   124940396.872       -2467.411          42.996                                                                    23993529.025    94155763.179       -1859.507          32.488  
C41  22238721.453   115802865.997         514.083          39.146                                                                    22238745.737    87269611.818         387.295          30.230  
C27                                                                                                                                  21565482.627    84627587.027        -725.989          28.116  
C28  24007785.656   125014836.086       -3022.761          42.494                                                                    24007801.845    94211778.368       -2277.938          23.820  
C13  40126514.492   208949299.924       -1208.511          41.016                                                                                                                                  
C30                                                                                                                                  22935866.030    90005263.052        1503.142          34.460  
C14  25872953.127   134727240.102       -3323.554          40.700                                                                                                                                  
> 2025  3 26 17 17 42.0002702  0 23
G32  22124752.952   116266336.369         144.176          45.133    22124765.244    86822330.271         107.203          25.575  
G01  20801798.215   109314119.947        1747.034          36.623    20801811.106    81630772.331        1304.941          33.560  
G03  22474257.295   118103018.924        3376.015          40.192    22474277.981    88193889.515        2520.944          32.027  
G08  21851999.675   114832971.4081      -2909.941          39.186    21852014.965    85751979.079       -2172.779          24.845  
G10  23319883.980   122546829.012       -2993.849          45.175    23319897.771    91512285.549       -2235.580          33.925  
G27  24702862.264   129814387.702       -3909.953          34.860    24702883.550    96939425.029       -2920.149          29.294  
G14  23276855.968   122320694.785        -469.033          37.995    23276874.555    91343452.278        -350.217          40.810  
E18                                                                  17796955.024    93523584.312         433.217          30.605    17796960.421    69839059.701         323.667          31.588  
E03                                                                  25210175.858   132480366.122          56.113          41.363    25210190.848                          42.292          19.654  
E21                                                                  26758073.271   140614588.017       -2549.367          36.552    26758090.659   105004492.145       -1903.507          34.808  
E23                                                                                                                                  26221765.549   102899841.165        -198.139          36.952  
E08                                                                  25765086.901   135396465.358        2616.497          41.891    25765106.688   101107817.740        1953.660          28.708  
E26                                                                                                                                  26240989.441   102975279.090        1825.910          35.206  
E13                                                                  23322346.476   122559796.913         447.883          35.787    23322369.560    91521989.733         334.175          32.173  
E15                                                                  25035544.054   131562668.886       -1968.227          40.811    25035559.643    98244888.530       -1469.625          25.163  
C32  24792321.833   129100149.891        3319.731          40.742                                                                    24792346.716    97290485.517        2502.043          24.503  
C33  23993934.345   124942708.107       -2311.437          42.998                                                                    23993972.718    94157504.927       -1741.777          32.620  
C41  22238590.744   115802195.805         669.884          38.914                                                                    22238617.426    87269106.739         504.948          30.126  
C27                                                                                                                                  21565637.920    84628195.493        -608.093          28.879  
C28  24008336.375   125017702.756       -2866.759          42.465                                                                    24008351.964    94213938.628       -2159.686          24.727  
C13  40126716.252   208950352.225       -1052.250          40.948                                                                                                                                  
C30  22935442.723   119430843.6441       2150.182          37.501                                                                    22935453.216    90003642.570        1620.276          34.372  
C14  25873563.505   134730407.497       -3167.404          41.239                                                                                                                                  
> 2025  3 26 17 17 43.0002703  0 23
G32  22124723.273   116266192.272         143.854          44.684    22124736.464    86822222.634         107.014          26.069  
G01  20801463.347   109312372.820        1747.129          36.661    20801478.636    81629467.702        1304.503          33.797  
G03  22473617.239   118099643.083        3375.782          40.617    22473635.226    88191368.569        2520.879          32.258  
G08                                                                  21852568.981    85754152.077       -2173.013          25.337  
G10  23320453.886   122549822.651       -2993.815          44.997    23320467.376    91514521.085       -2235.622          33.892  
G27  24703607.548   129818297.595       -3909.822          34.630    24703627.035    96942344.704       -2919.531          29.378  
G14  23276942.908   122321163.827        -469.300          37.844    23276963.893    91343802.534        -350.531          40.872  
E18                                                                                                                                  17796877.678    69838736.565         322.575          31.323  
E03                                                                  25210165.366   132480310.078          55.935          41.375    25210180.056                          44.017          16.733  
E21                                                                  26758554.438   140617137.171       -2549.226          36.864    26758575.424   105006395.702       -1903.319          34.684  
E23                                                                                                                                  26221815.915   102900039.458        -198.676          37.124  
E08                                                                  25764588.646   135393848.962        2616.509          42.076    25764608.133   101105863.921        1953.621          28.780  
E26                                                                                                                                  26240524.163   102973453.306        1825.715          35.422  
E13                                                                  23322261.634   122559349.027         447.924          35.724    23322284.418    91521655.243         334.417          31.881  
E15                                                                  25035917.595   131564637.124       -1968.150          40.772    25035934.083    98246358.323       -1469.771          26.093  
C32  24791682.375   129096830.152        3319.880          40.474                                                                    24791706.958    97287983.791        2501.604          24.522  
C33  23994376.839   124945019.613       -2311.620          42.776                                                                    23994417.011    94159246.876       -1741.846          32.370  
C41  22238464.831   115801526.042         669.640          38.977                                                                    22238488.815    87268601.989         504.674          30.082  
C27                                                                                                                                  21565793.212    84628804.272        -608.557          28.339  
C28  24008886.794   125020569.549       -2866.750          42.456                                                                    24008902.083    94216099.124       -2160.817          24.272  
C13  40126919.512   208951404.404       -1052.140          41.211                                                                                                                                  
C30  22935025.113   119428693.479        2149.929          37.102                                                                    22935040.402    90002022.180        1620.216          34.386  
C14  25874169.985   134733574.958       -3167.461          41.695                                                                                                                                  
> 2025  3 26 17 17 44.0002704  0 23
G32  22124699.589   116266048.633         143.318          44.356    22124709.782    86822115.335         106.537          26.419  
G01  20801132.676   109310625.865        1746.943          36.732    20801146.166    81628163.134        1304.693          33.971  
G03  22472978.980   118096267.311        3375.596          40.987    22472992.471    88188847.730        2520.764          32.476  
G08                                                                  21853124.197    85756325.219       -2174.445          26.284  
G10  23321026.190   122552816.264       -2993.690          45.013    23321037.282    91516756.585       -2235.688          33.799  
G27  24704356.430   129822207.326       -3909.696          34.066    24704371.120    96945264.327       -2919.691          29.023  
G14  23277031.047   122321633.303        -469.812          37.944    23277052.932    91344153.092        -350.681          40.788  
E18                                                                                                                                  17796795.835    69838414.401         321.684          31.363  
E03                                                                  25210157.271   132480254.336          55.529          41.395    25210166.865                          41.925          16.898  
E21                                                                  26759045.798   140619686.371       -2549.284          37.144    26759060.488   105008299.290       -1903.369          34.749  
E23                                                                  26221848.892   137796755.0011       -265.906          27.635    26221866.280   102900237.891        -198.440          37.184  
E08                                                                  25764091.291   135391232.631        2616.255          41.919    25764110.477   101103910.128        1953.842          29.222  
E26                                                                                                                                  26240058.585   102971627.404        1825.782          35.110  
E13                                                                  23322177.093   122558901.195         447.659          35.586    23322199.877    91521320.837         334.140          32.011  
E15                                                                  25036290.537   131566605.326       -1968.316          40.647    25036308.524    98247828.108       -1469.840          25.778  
C32  24791050.713   129093510.439        3319.625          40.512                                                                    24791070.199    97285482.071        2501.585          24.856  
C33  23994821.131   124947331.268       -2311.828          42.768                                                                    23994860.404    94160988.996       -1742.387          32.888  
C41  22238336.520   115800856.638         669.015          38.915                                                                    22238360.503    87268097.582         504.013          30.256  
C27                                                                                                                                  21565947.305    84629413.299        -609.186          28.767  
C28  24009436.313   125023436.353       -2866.973          42.534                                                                    24009454.001    94218259.435       -2159.575          24.089  
C13  40127122.171   208952456.324       -1051.951          41.186                                                                                                                                  
C30  22934605.703   119426543.414        2149.819          36.887                                                                    22934627.588    90000401.847        1620.456          34.671  
C14  25874776.765   134736742.342       -3167.372          41.342                                                                                                                                  
> 2025  3 26 17 17 45.0002705  0 23
G32  22124668.411   116265905.522         142.675          44.394    22124683.400    86822008.404         106.631          26.417  
G01  20800794.510   109308879.276        1746.093          36.810    20800813.996    81626858.783        1304.256          33.962  
G03                                                                  22472350.316    88186326.900        2520.519          32.205  
G08                                                                  21853677.614    85758498.247       -2172.597          25.479  
G10  23321593.996   122555810.009       -2993.975          45.586    23321606.588    91518992.131       -2235.856          34.159  
G27  24705095.718   129826117.002       -3909.706          35.679    24705114.605    96948183.766       -2919.149          28.664  
G14  23277121.584   122322103.404        -470.484          38.599    23277141.970    91344504.031        -351.267          40.323  
E18                                                                                                                                  17796714.291    69838093.330         320.251          31.391  
E03                                                                  25210146.779   132480198.974          54.988          41.090    25210156.372                          41.571          16.354  
E21                                                                  26759533.860   140622235.825       -2550.248          36.554    26759545.552   105010202.988       -1903.759          34.975  
E23                                                                  26221901.955   137797021.295        -266.863          30.105    26221917.544   102900436.627        -199.022          37.824  
E08                                                                  25763594.235   135388616.439        2615.927          42.404    25763612.822   101101956.499        1953.313          29.048  
E26                                                                                                                                  26239593.008   102969801.400        1825.959          34.946  
E13                                                                  23322093.151   122558453.556         447.269          36.152    23322114.736    91520986.452         334.312          31.840  
E15                                                                  25036664.378   131568573.588       -1968.474          40.457    25036683.565    98249297.896       -1469.875          25.644  
C32  24790411.555   129090190.769        3319.505          40.631                                                                    24790431.641    97282980.352        2501.490          25.320  
C33  23995263.924   124949643.203       -2312.319          43.333                                                                    23995304.396    94162731.222       -1742.795          32.279  
C41  22238204.611   115800187.690         668.391          39.975                                                                    22238231.593    87267593.359         504.013          30.180  
C27                                                                                                                                  21566103.497    84630022.438        -609.301          28.648  
C28  24009990.629   125026303.253       -2867.133          43.503                                                                    24010004.420    94220419.929       -2160.025          23.103  
C13  40127323.632   208953508.123       -1052.127          41.769                                                                                                                                  
C14  25875387.742   134739909.809       -3167.817          41.790                                                                                                                                  
C30  22934199.784   119424393.528        2149.541          38.212                                                                    22934214.174    89998781.682        1619.877          34.401  
> 2025  3 26 17 17 46.0002706  0 23
G32  22124638.432   116265763.068         142.183          45.284    22124656.119    86821902.035         106.394          26.093  
G01  20800460.241   109307132.998        1745.978          38.864    20800481.826    81625554.766        1303.954          33.972  
G03                                                                  22471708.160    88183806.417        2520.579          32.245  
G08                                                                  21854231.031    85760671.965       -2173.632          25.388  
