     3.04           OBSERVATION DATA    M: Mixed            RINEX VERSION / TYPE
Geo++ RINEX Logger  Geo++               20250401 151651 UTC PGM / RUN BY / DATE
************************************************************COMMENT
This file was generated by the Geo++ RINEX Logger App       COMMENT
for Android devices (Version 2.1.8). If you encounter       COMMENT
any issues, please send an email to android@geopp.de        COMMENT
Filtering Mode: BEST                                        COMMENT
************************************************************COMMENT
Hardware:       Broadcom, BCM4776, GLL ver. 154.20.24 616640COMMENT
Geo++                                                       MARKER NAME
GEODETIC                                                    MARKER TYPE
Geo++               Geo++                                   OBSERVER / AGENCY
NA                  NA                  NA                  REC # / TYPE / VERS
NA                  NA                                      ANT # / TYPE
  3741276.7571   668808.4706  5105006.5895                  APPROX POSITION XYZ
        0.0000        0.0000        0.0000                  ANTENNA: DELTA H/E/N
G    8 C1C L1C D1C S1C C5Q L5Q D5Q S5Q                      SYS / # / OBS TYPES
R    4 C1C L1C D1C S1C                                      SYS / # / OBS TYPES
E   12 C1B L1B D1B S1B C1C L1C D1C S1C C5Q L5Q D5Q S5Q      SYS / # / OBS TYPES
C   12 C2I L2I D2I S2I C1D L1D D1D S1D C5P L5P D5P S5P      SYS / # / OBS TYPES
J    8 C1C L1C D1C S1C C5Q L5Q D5Q S5Q                      SYS / # / OBS TYPES
  2025     4     1    15    17    9.9996946     GPS         TIME OF FIRST OBS
 24 R01  1 R02 -4 R03  5 R04  6 R05  1 R06 -4 R07  5 R08  6 GLONASS SLOT / FRQ #
    R09 -2 R10 -7 R11  0 R12 -1 R13 -2 R14 -7 R15  0 R16 -1 GLONASS SLOT / FRQ #
    R17  4 R18 -3 R19  3 R20  2 R21  4 R22 -3 R23  3 R24  2 GLONASS SLOT / FRQ #
G L1C                                                       SYS / PHASE SHIFT
G L5Q -0.25000                                              SYS / PHASE SHIFT
R L1C                                                       SYS / PHASE SHIFT
E L1B                                                       SYS / PHASE SHIFT
E L1C +0.50000                                              SYS / PHASE SHIFT
E L5Q -0.25000                                              SYS / PHASE SHIFT
C L2I                                                       SYS / PHASE SHIFT
J L1C                                                       SYS / PHASE SHIFT
J L5Q -0.25000                                              SYS / PHASE SHIFT
 C1C    0.000 C1P    0.000 C2C    0.000 C2P    0.000        GLONASS COD/PHS/BIS
                                                            END OF HEADER
> 2025  4  1 15 17  9.9996946  0 23
G32  24032593.782   126292132.6451       3233.819          36.203    24032620.463                        2415.345          20.028  
G01  23652200.322   124293150.7001       3492.072          37.748    23652215.612    92816373.8351       2608.765          27.093  
G02  21646048.253   113750751.2631       2153.820          45.027                                                                  
G23  23085605.168   121315673.4811      -2839.742          35.633    23085621.657    90592937.7431      -2120.504          25.405  
G08  20245875.972   106392795.9991        476.580          46.183    20245888.563    79449214.5191        356.291          28.508  
G10  21069664.875   110721836.0691       -463.048          48.553    21069681.063    82681953.8841       -345.451          30.363  
G27  21031249.769   110519962.9491      -2093.983          44.330    21031261.461    82531187.4321      -1563.769          27.065  
E33                                                                  25990843.513   136582803.6491       2615.257          38.366    25990861.501   101993723.1641       1953.094          25.272  
E03                                                                                                                                  27626499.772                        -805.258          17.214  
E07                                                                  27437177.537   144183340.2331       3203.620          32.980    27437206.317                        2393.272          19.024  
E23                                                                  24958366.382   131157100.2471      -1650.220          42.663    24958384.070    97942059.6811      -1231.987          28.100  
E08                                                                                                                                  26358945.182   103438161.9951       1070.560          24.295  
E26                                                                  23333883.089   122620383.2281        658.604          39.432    23333899.278    91567232.0541        491.142          23.857  
E13                                                                  24952987.206   131128832.4281      -1764.860          41.587    24953006.093    97920955.7331      -1317.480          26.226  
E31                                                                  25578057.179   134413597.4361       1162.283          34.051    25578079.664   100373878.4161        868.591          29.810  
C32  24243722.320   126243423.4671       3301.095          45.294                                                                    24243739.109    95137639.6041       2494.006          23.191  
C33                                                                                                                                  25557168.540                       -1771.169          15.404  
C36  25518184.129   132879880.4281      -2290.208          32.438                                                                    25518214.108   100138952.7891      -1725.610          24.130  
C41  23094163.044   120257366.9821        311.934          44.797                                                                    23094187.627    90626552.2001        235.276          28.771  
C27  22387932.057   116579836.7511      -1621.917          43.294                                                                    22387945.248    87855105.9481      -1223.129          28.860  
C45  25339599.860                        -209.608          33.154                                                                    25339604.657    99438050.9601       -157.168          27.706  
C30  21770874.637   113366656.6101       1270.948          44.712                                                                    21770890.226    85433648.9021        958.753          26.723  
R21  20457173.893   109470469.7791      -2022.641          43.541  
> 2025  4  1 15 17 10.9996948  0 23
G32                                                                  24032062.549                        2178.803          21.027  
G01  23651589.645   124289972.941        3178.107          38.718    23651610.930    92814000.947        2373.586          27.138  
G02  21645696.296   113748912.036        1839.182          45.064                                                                  
G23  23086198.457   121318828.753       -3155.070          33.488    23086222.441    90595293.826       -2355.555          23.994  
G08  20245846.292   106392634.092         162.068          45.919    20245857.684    79449093.721         120.916          27.441  
G10  21069815.970   110722613.961        -778.123          48.009    21069829.461    82682534.566        -580.508          29.503  
G27  21031706.652   110522372.110       -2409.097          46.668    21031719.544    82532986.481       -1799.022          25.730  
E33                                                                  25990405.816   136580502.942        2300.852          37.563    25990422.905   101992005.146        1718.385          26.287  
E03                                                                                                                                  27626766.587                       -1040.577          17.761  
E23                                                                  24958738.725   131159064.921       -1964.441          42.134    24958758.211    97943527.016       -1467.936          29.462  
E07                                                                  27436629.217   144180451.820        2888.945          33.432                                                                  
E08                                                                                                                                  26358732.030   103437326.262         835.252          24.660  
E26                                                                  23333815.636   122620038.728         344.493          39.695    23333831.525    91566974.824         257.025          26.010  
E13                                                                  24953383.232   131130912.313       -2080.041          41.727    24953403.019    97922508.990       -1553.938          26.761  
E31                                                                  25577893.493                         848.269          32.656    25577918.975   100373245.262         633.099          31.832  
C32  24243149.117   126240434.333        2989.425          44.110                                                                    24243162.008                        2259.520          19.774  
C33                                                                                                                                  25557685.083                       -2005.973          11.000  
C36  25518685.981                       -2600.463          33.403                                                                    25518714.162   100140913.617       -1960.819          24.485  
C41  23094163.943   120257367.320          -0.368          45.388                                                                    23094186.727    90626552.383          -0.879          28.305  
C27  22388303.200   116581770.511       -1933.551          41.428                                                                    22388317.290    87856563.116       -1457.563          29.892  
C45  25339696.993                        -521.772          30.374                                                                    25339706.286    99438443.573        -393.136          29.690  
C30  21770692.064   113365697.120         959.443          45.876                                                                    21770705.854    85432925.890         723.787          27.365  
R21  20457610.991   109472813.344       -2343.797          43.739  
> 2025  4  1 15 17 11.9996950  0 23
G32  24031488.147   126286296.4401       2917.693          37.515    24031507.633                        2178.641          21.482  
G01  23650985.563   124286795.600        3177.555          39.017    23651006.549    92811628.389        2371.928          26.808  
G02  21645349.436   113747073.310        1838.753          43.666                                                                  
G23  23086799.541   121321984.353       -3155.681          40.494    23086822.625    90597650.216       -2356.488          27.128  
G08  20245812.416   106392473.041         160.837          45.220    20245826.206    79448973.386         120.482          27.396  
G10  21069965.267   110723392.613        -778.922          48.592    21069977.558    82683116.216        -582.631          29.224  
G27  21032164.436   110524781.950       -2410.082          46.861    21032177.626    82534786.031       -1799.891          26.567  
E33                                                                  25989966.021   136578202.514        2300.067          38.396    25989986.407   101990287.345        1717.637          25.505  
E03                                                                                                                                  27627032.204                       -1042.333          21.449  
E07                                                                  27436080.297   144177563.829        2888.282          32.607    27436103.381                        2154.851          18.433  
E23                                                                  24959112.866   131161030.331       -1965.700          40.255    24959131.753    97944994.516       -1467.669          29.973  
E08                                                                  26358499.091   138514847.5681       1118.450          37.344    26358519.177   103436491.235         835.179          21.489  
E26                                                                  23333748.182   122619694.752         343.870          38.266    23333765.570    91566717.922         256.417          26.182  
E13                                                                  24953779.858   131132992.538       -2080.349          41.922    24953798.445    97924062.393       -1553.751          25.501  
E31                                                                  25577733.404   134411902.2951        846.804          33.780    25577757.087   100372612.606         632.408          32.569  
C32  24242572.916   126237445.761        2988.613          44.571                                                                    24242588.805                        2261.515          19.176  
C33                                                                                                                                  25558190.833                       -2008.469          18.841  
C36  25519183.937   132885085.0201      -2602.842          33.016                                                                    25519214.216   100142874.843       -1961.143          23.556  
C41  23094165.142   120257368.464          -1.427          45.224                                                                    23094188.226    90626553.106          -0.348          27.052  
C27  22388673.444   116583704.858       -1934.499          42.161                                                                    22388687.834    87858020.751       -1457.578          30.123  
C45  25339794.126                        -519.654          27.914                                                                    25339806.717    99438836.677        -393.303          28.017  
C30  21770505.892   113364738.218         958.851          45.538                                                                    21770522.381    85432203.381         722.094          26.475  
R21  20458054.384   109475157.470       -2344.396          44.169  
> 2025  4  1 15 17 12.9996951  0 23
G32  24030905.650   126283221.413        3074.977          38.530    24030924.237                        2296.182          21.055  
G01  23650358.997   124283461.023        3334.621          36.566    23650372.188    92809138.206        2490.308          27.589  
G02  21644966.302   113745077.544        1995.518          42.922                                                                  
G23  23087375.143   121324983.305       -2998.571          42.245    23087393.130    90599889.443       -2240.037          28.340  
G08  20245752.457   106392155.223         317.659          44.621    20245765.348    79448736.049         237.047          28.654  
G10  21070082.485   110724014.487        -622.213          49.169    21070095.077    82683580.521        -464.158          27.121  
G27  21032591.940   110527034.877       -2253.069          46.839    21032606.929    82536468.341       -1682.170          29.993  
E33                                                                  25989501.642   136575744.828        2457.662          36.799    25989518.431   101988452.125        1834.824          27.615  
E03                                                                                                                                  27627267.241   108415312.5371       -925.664          23.361  
E07                                                                  27435500.498   144174518.535        3045.521          32.484    27435522.083                        2272.269          16.918  
E23                                                                  24959459.726   131162838.783       -1808.315          39.121    24959474.715    97946344.877       -1350.657          30.738  
E08                                                                  26358257.758   138513572.313        1275.332          35.169    26358276.345   103435538.862         952.648          24.101  
E26                                                                  23333652.548   122619193.765         500.587          38.816    23333671.136    91566343.712         373.789          28.827  
E13                                                                  24954144.705   131134915.507       -1923.116          40.862    24954163.592    97925498.374       -1435.939          26.001  
E31                                                                  25577543.635   134410898.107        1004.173          33.725    25577565.220   100371862.786         749.532          31.711  
C32                                                                                                                                  24241988.920    95130754.1941       2369.444          26.704  
C33                                                                                                                                  25558678.595                       -1892.529          22.301  
C36  25519653.711   132887531.897       -2446.826          32.000                                                                    25519684.590                       -1843.742          22.972  
C41  23094138.161   120257214.203         153.973          45.821                                                                    23094159.146    90626436.804         117.458          26.390  
C27  22389016.706   116585483.528       -1778.810          44.548                                                                    22389029.597    87859361.205       -1340.676          29.134  
C45  25339868.774                        -366.520          31.576                                                                    25339875.969    99439112.653        -275.738          26.324  
C30  21770291.541   113363623.731        1114.343          44.792                                                                    21770308.329    85431363.541         839.481          26.408  
R21  20458456.405   109477341.688       -2184.489          43.946  
> 2025  4  1 15 17 13.9996953  0 23
G32  24030352.233   126280304.413        2917.013          42.108    24030367.823                        2177.297          17.000  
G01                                                                  23649766.307    92806766.010        2371.916          26.873  
G02  21644618.542   113743240.144        1837.889          40.199                                                                  
G23  23087975.627   121328139.916       -3156.704          42.622    23087994.214    90602246.437       -2357.598          26.324  
G08  20245721.878   106391995.926         159.537          45.483    20245736.268    79448617.237         118.842          27.664  
G10  21070229.384   110724794.740        -780.459          49.199    21070243.174    82684163.311        -583.344          25.967  
G27  21033051.521   110529446.208       -2411.545          44.374    21033065.312    82538268.922       -1800.594          29.267  
E33                                                                  25989062.147   136573445.266        2300.558          35.868    25989080.134   101986734.671        1716.968          28.146  
E03                                                                                                                                  27627532.857                       -1043.699          21.492  
E07                                                                  27434948.281   144171631.104        2887.509          36.797    27434969.866                        2157.381          14.679  
E23                                                                  24959832.667   131164805.491       -1966.705          39.909    24959849.156    97947813.565       -1468.943          29.580  
E08                                                                                                                                  26358064.092   103434704.816         833.631          25.326  
E26                                                                  23333590.192   122618850.858         342.979          40.443    23333605.781    91566087.701         256.135          27.125  
E13                                                                  24954544.628   131136996.426       -2081.095          40.664    24954559.618    97927052.367       -1553.988          27.402  
E31                                                                  25577386.844   134410052.439         845.987          33.014    25577404.831   100371231.178         631.022          30.170  
C32  24241397.130   126231314.0261       2987.636          44.182                                                                    24241413.619    95128502.811        2251.913          27.837  
C33  25559150.468   133093203.5991      -2670.040          33.174                                                                    25559191.540                       -2009.347          19.357  
C36  25520155.264                       -2602.941          31.798                                                                    25520184.944   100146680.8851      -1962.276          21.239  
C41  23094137.861   120257216.895          -2.984          45.592                                                                    23094159.446    90626439.165          -1.582          26.554  
C27  22389389.648   116587418.847       -1935.474          47.227                                                                    22389401.340    87860819.939       -1458.386          27.347  
C45  25339966.206   131951877.9081       -523.209          34.870                                                                    25339976.100    99439507.032        -394.330          26.221  
C30  21770107.468   113362666.164         957.754          44.743                                                                    21770123.357    85430644.231         713.900          24.048  
R21  20458897.400   109479686.984       -2345.533          43.971  
> 2025  4  1 15 17 14.9996954  0 23
G32  24029765.539   126277230.108        3074.340          43.069    24029784.127                        2296.977          15.539  
G01                                                                  23649133.745    92804276.369        2489.356          27.360  
G02  21644241.703   113741245.264        1994.549          37.910                                                                  
G23  23088547.631   121331139.390       -2999.458          43.118    23088565.319    90604486.307       -2240.084          26.847  
G08  20245664.018   106391679.518         316.197          45.647    20245675.411    79448381.002         235.787          25.746  
G10  21070349.301   110725418.036        -623.606          49.017    21070363.691                        -466.206          22.017  
G27  21033481.124   110531700.299       -2254.325          43.971    21033494.615    82539952.257       -1683.636          25.686  
E33                                                                                                                                  25988612.458   101984899.859        1834.302          27.155  
E03                                                                  27627743.911   145184773.9611      -1240.003          32.868    27627769.693                        -925.730          18.299  
E07                                                                  27434372.679   144168586.240        3044.858          39.194    27434390.367                        2275.026          14.602  
E23                                                                  24960177.429   131166614.899       -1809.437          39.891    24960193.018    97949164.686       -1350.850          25.938  
E08                                                                                                                                  26357821.860   103433753.399         951.400          24.904  
E26                                                                  23333496.357   122618350.630         500.015          40.645    23333510.147    91565714.144         373.241          24.870  
E13                                                                  24954908.276   131138920.066       -1923.787          40.944    24954927.763                       -1436.776          24.827  
E31                                                                  25577196.775   134409049.459        1002.860          35.375    25577213.863   100370482.299         748.224          28.220  
C32  24240793.048   126228170.632        3143.249          41.107                                                                    24240810.436                        2370.353          25.122  
C33  25559637.031   133095716.714       -2513.487          31.582                                                                    25559674.206                       -1893.105          18.740  
C36  25520625.938   132892583.2091      -2447.849          33.845                                                                    25520655.018   100148525.393       -1844.608          22.456  
C41  23094107.882   120257064.153         152.426          45.735                                                                    23094130.366    90626324.391         113.692          24.759  
C27  22389731.112   116589198.409       -1779.773          47.482                                                                    22389742.504                       -1341.503          22.438  
C45  25340037.857   131952246.072        -367.925          37.109                                                                    25340046.551                        -276.682          24.817  
C30  21769897.314   113361552.648        1113.431          45.602                                                                    21769907.806                         838.864          21.222  
R21  20459309.015   109481872.372       -2185.584          44.619  
> 2025  4  1 15 17 15.9996956  0 23
G32  24029210.923   126274313.924        2915.764          43.100    24029229.511                        2178.302          18.913  
G01                                                                  23648527.265    92801904.690        2371.731          26.835  
G02  21643890.047   113739408.535        1836.311          38.584                                                                  
G23  23089147.216   121334297.021       -3158.050          43.225    23089165.204    90606844.413       -2359.539          26.012  
G08  20245634.339   106391521.564         157.494          45.815    20245644.232    79448263.035         117.243          26.025  
G10  21070497.098   110726199.780        -782.374          48.991    21070512.088                        -583.597          18.924  
G27  21033940.106   110534112.787       -2413.164          43.282    21033954.496    82541753.815       -1801.923          23.304  
E33                                                                                                                                  25988175.660   101983182.948        1716.761          27.260  
E03                                                                  27628020.320   145186172.321       -1398.630          32.240    27628035.309                       -1043.397          17.790  
E23                                                                  24960550.670   131168582.607       -1968.370          39.687    24960568.358    97950634.098       -1469.659          24.227  
E07                                                                  27433821.960   144165699.281        2886.674          39.149                                                                  
E08                                                                                                                                  26357609.906   103432920.345         832.681          24.049  
E26                                                                  23333430.702   122618008.511         341.820          41.649    23333445.991    91565458.617         256.034          25.977  
E13                                                                  24955305.501   131141001.710       -2082.164          40.670    24955322.889    97930043.2831      -1554.393          23.606  
E31                                                                  25577034.887   134408204.948         843.886          35.160    25577052.575   100369851.563         629.942          27.794  
C32  24240220.744   126225183.943        2986.280          39.716                                                                    24240236.034    95123883.1061       2251.369          24.283  
C33  25560147.578   133098386.562       -2669.630          31.460                                                                    25560188.350                       -2011.122          17.236  
C36  25521127.491   132895187.565       -2604.823          34.759                                                                    25521154.772   100150488.131       -1962.951          21.704  
C41  23094107.882   120257068.410          -5.028          45.729                                                                    23094132.165                          -6.138          22.292  
C27  22390100.156   116591134.686       -1936.939          47.087                                                                    22390114.546                       -1457.864          19.858  
C45  25340137.988   131952770.672        -525.176          37.727                                                                    25340146.981    99440179.3091       -394.608          25.471  
C30  21769715.040   113360595.967         956.096          46.120                                                                    21769724.333                         721.191          21.995  
R21  20459747.312   109484218.899       -2347.108          44.650  
> 2025  4  1 15 17 16.9996958  0 23
G32  24028653.909   126271398.121        2915.448          41.460    24028672.796                        2180.263          17.806  
G01                                                                  23647924.982    92799533.277        2372.218          27.253  
G02  21643536.591   113737571.989        1836.664          38.857                                                                  
G23  23089748.899   121337455.131       -3158.053          44.805    23089765.688    90609202.609       -2358.186          26.583  
G08  20245607.358   106391364.172         157.713          43.761    20245614.852    79448145.440         117.055          28.909  
G10                                                                  21070658.687                        -584.087          29.573  
G27  21034399.988   110536525.808       -2413.326          45.106    21034412.579    82543555.792       -1802.174          31.665  
E33                                                                                                                                  25987738.863   101981466.367        1717.510          30.386  
E03                                                                  27628273.644   145187571.392       -1398.744          32.839    27628300.326                       -1044.010          19.442  
E23                                                                  24960927.210   131170550.668       -1968.434          40.121    24960942.799    97952103.641       -1469.326          29.210  
E07                                                                  27433275.439   144162812.608        2886.606          37.165                                                                  
E08                                                                                                                                  26357397.354   103432087.562         832.457          25.459  
E26                                                                  23333365.947   122617666.704         342.005          39.940    23333380.937    91565203.465         255.156          30.152  
E13                                                                  24955703.326   131143083.704       -2081.704          40.424    24955718.915    97931598.018       -1554.926          28.802  
E31                                                                  25576873.899   134407360.806         844.497          34.438    25576893.385   100369221.295         630.125          29.824  
C32  24239646.342   126222197.664        2985.913          43.202                                                                    24239662.531    95121632.706        2249.952          28.354  
C33  25560658.424   133101057.090       -2670.535          34.265                                                                    25560699.496                       -2011.967          21.087  
C36  25521624.847                       -2603.708          31.497                                                                    25521654.826                       -1963.782          18.614  
C41  23094110.880   120257073.461          -5.364          45.083                                                                    23094130.966    90626331.0291         -3.997          30.444  
C27                                                                                                                                  22390485.090                       -1459.161          28.971  
C45  25340238.418   131953295.906        -525.259          35.978                                                                    25340247.712    99440575.375        -396.045          26.130  
C30  21769529.768   113359639.620         956.864          43.824                                                                    21769541.160    85428371.1701        720.415          25.165  
R21  20460187.707   109486566.019       -2347.232          43.964  
> 2025  4  1 15 17 17.9996959  0 22
G32                                                                  24028090.599                        2295.690          25.277  
G01                                                                  23647290.921    92797044.471        2488.235          29.026  
G02  21643161.551   113735578.878        1991.685          42.910                                                                  
G23  23090322.702   121340456.286       -3001.304          42.982    23090336.493    90611443.842       -2241.057          24.301  
G08  20245540.204   106391050.445         312.264          44.939    20245555.793    79447911.026         233.580          29.425  
G10  21070769.010   110727608.0621       -626.373          49.614    21070779.203    82686256.1801       -467.542          28.764  
G27  21034829.590   110538782.137       -2257.112          47.187    21034842.482    82545240.616       -1684.778          32.416  
E33                                                                                                                                  25987271.187   101979632.425        1833.275          30.301  
E03                                                                                                                                  27628536.262   108420307.2211       -927.017          22.960  
E23                                                                  24961269.573   131172362.116       -1813.098          39.373    24961287.860    97953456.285       -1353.025          31.834  
E08                                                                  26357142.230   138507678.6551       1271.756          37.620    26357155.121   103431137.779         949.852          23.929  
E26                                                                  23333273.611   122617168.169         497.131          41.073    23333285.603    91564831.078         371.638          29.438  
E13                                                                  24956068.174   131145008.577       -1924.857          42.222    24956083.463    97933035.387       -1437.236          26.561  
E31                                                                  25576685.929   134406360.129        1000.087          40.013    25576702.417   100368473.946         746.810          27.555  
C32  24239042.560   126219055.891        3141.262          44.875                                                                    24239059.948    95119264.997        2367.494          30.940  
C33  25561141.090   133103572.155       -2514.767          36.394                                                                    25561182.761   100307549.7121      -1896.053          23.569  
C36                                                                                                                                  25522124.601   100154295.7111      -1846.722          24.263  
C41  23094080.900   120256923.266         149.573          46.299                                                                    23094102.186    90626217.730         113.413          27.004  
C27  22390817.859   116594852.7131      -1781.645          47.214                                                                    22390828.652    87866415.8501      -1342.398          30.824  
C45  25340307.370   131953665.928        -370.522          35.571                                                                    25340319.662                        -276.871          21.512  
C30  21769318.115   113358528.003        1110.707          45.518                                                                    21769327.408    85427533.394         836.632          24.373  
R21  20460597.823   109488753.424       -2187.940          44.503  
> 2025  4  1 15 17 18.9996961  0 23
G32  24027519.794   126265410.5741       2915.682          43.292    24027535.084    94289204.2291       2176.052          24.449  
G01  23646663.755   124264090.8511       3174.709          32.803    23646686.839    92794673.619        2370.386          30.423  
G02  21642809.595   113733743.620        1834.839          42.900                                                                  
G23  23090919.889   121343615.552       -3158.919          41.992    23090938.776    90613802.928       -2358.551          23.920  
G08  20245511.424   106390894.621         156.537          44.353    20245527.013    79447794.846         115.983          31.786  
G10  21070915.609   110728392.152        -783.651          50.648    21070928.800    82686841.863        -585.558          27.964  
G27  21035289.172   110541196.547       -2412.944          47.261    21035302.063    82547043.847       -1803.422          33.982  
E33                                                                  25986817.301   136561635.9711       2297.643          39.947    25986834.089   101977916.297        1715.924          30.670  
E03                                                                  27628779.994   145190214.1221      -1400.750          33.155    27628803.078   108421352.866       -1045.488          21.475  
E23                                                                  24961649.110   131174331.352       -1968.551          38.340    24961662.301    97954927.066       -1471.226          33.189  
E07                                                                  27432149.418   144156882.9601       2886.841          39.110                                                                  
E08                                                                  26356927.579   138506565.006        1115.030          37.300    26356942.868   103430306.358         831.332          23.742  
E26                                                                  23333208.256   122616827.270         341.497          39.864    23333220.847    91564576.628         254.651          30.224  
E13                                                                  24956463.600   131147091.389       -2081.913          41.937    24956480.988    97934590.846       -1554.676          26.781  
E31                                                                  25576525.540   134405517.546         843.274          39.095    25576541.729   100367844.977         626.766          25.854  
C32  24238468.457   126216070.735        2985.819          45.745                                                                    24238486.145    95117015.460        2249.691          32.752  
C33  25561653.436   133106243.867       -2672.046          34.967                                                                    25561695.107   100309562.790       -2013.135          22.868  
C36  25522593.776   132902846.5471      -2606.107          30.949                                                                    25522626.154   100156259.587       -1964.638          25.968  
C41  23094082.100   120256929.945          -5.623          46.461                                                                    23094102.486    90626223.060          -5.534          25.426  
C27  22391189.002   116596790.464       -1936.382          46.968                                                                    22391201.294    87867876.345       -1460.339          30.783  
C45  25340410.199   131954192.814        -526.928          36.554                                                                    25340419.792                        -394.689          19.112  
C30  21769136.141   113357572.896         955.174          45.987                                                                    21769145.434    85426813.513         720.934          26.878  
R21  20461036.419   109491101.779       -2347.246          44.879  
> 2025  4  1 15 17 19.9996962  0 23
G32  24026931.601   126262339.316        3071.542          43.815    24026950.488    94286910.680        2293.491          25.520  
G01  23646033.592   124260758.476        3331.223          43.450    23646052.179    92792185.142        2486.585          30.926  
G02  21642430.357   113731751.230        1991.614          44.128                                                                  
G23  23091490.394   121346618.657       -3002.142          44.385    23091508.981    90616045.365       -2242.289          24.672  
G08  20245452.365   106390582.367         311.622          44.249    20245467.355    79447561.711         232.339          31.885  
G10  21071034.926   110729020.002        -627.681          46.563    21071047.817                        -471.841          25.602  
G27  21035719.075   110543454.523       -2257.916          46.056    21035731.666    82548730.677       -1686.202          32.224  
E33                                                                  25986349.625   136559180.449        2454.125          40.867    25986366.713   101976083.770        1832.731          29.322  
E03                                                                  27629020.127   145191458.391       -1243.581          38.206    27629041.413   108422282.153        -929.052          28.652  
E23                                                                  24961986.976   131176143.639       -1813.731          43.102    24962006.762    97956280.372       -1354.162          30.021  
E07                                                                  27431564.223   144153840.406        3043.152          38.983                                                                  
E08                                                                  26356679.950   138505295.661        1270.333          40.007    26356701.235                         947.760          23.744  
E26                                                                  23333109.025   122616329.690         497.244          42.244    23333126.413    91564205.149         371.340          30.034  
E13                                                                  24956829.646   131149017.770       -1925.848          43.592    24956847.034                       -1439.882          25.847  
E31                                                                  25576334.272   134404517.982         998.607          41.129    25576350.761                         745.780          25.110  
C32  24237862.877   126212930.227        3140.146          44.071                                                                    24237882.963                        2366.680          29.304  
C33  25562139.099   133108760.906       -2516.025          42.698                                                                    25562179.272   100311459.697       -1896.311          30.469  
C36  25523065.949   132905296.210       -2450.843          38.148                                                                    25523098.626   100158105.421       -1847.853          26.029  
C41  23094053.619   120256782.008         148.099          44.962                                                                    23094076.104    90626111.449         111.222          27.694  
C27  22391531.965   116598573.278       -1782.320          45.410                                                                    22391542.458                       -1343.412          29.784  
C45                                                                                                                                  25340493.541                        -280.744          25.260  
C30  21768919.391   113356462.274        1110.038          45.378                                                                    21768932.282    85425976.770         836.286          28.293  
R21  20461434.244   109493291.061       -2188.797          44.814  
> 2025  4  1 15 17 20.9996964  0 23
G32  24026372.788   126259425.458        2912.726          46.719    24026397.071    94284734.754        2174.887          26.210  
G01  23645425.612   124257584.611        3173.456          44.349    23645447.797    92789814.841        2370.307          30.180  
G02  21642085.296   113729917.500        1833.165          44.319                                                                  
G23  23092086.981   121349779.137       -3160.542          44.169    23092112.163    90618405.729       -2360.017          30.893  
G08  20245429.281   106390428.730         152.668          41.741    20245438.275    79447446.910         114.686          28.603  
G10  21071182.424   110729805.840        -786.480          45.723    21071196.514                        -587.159          29.621  
G27  21036178.956   110545870.553       -2417.165          45.068    21036192.147    82550534.873       -1804.467          33.076  
E33                                                                  25985915.225   136556883.436        2296.814          40.324    25985929.615   101974368.179        1715.903          27.639  
E03                                                                  27629288.142   145192860.470       -1401.732          38.919    27629307.329   108423329.124       -1046.992          32.032  
E23                                                                  24962363.815   131178114.655       -1971.580          44.192    24962382.702    97957752.202       -1472.602          27.385  
E07                                                                                                                                  27431039.886                        2154.541          21.040  
E08                                                                  26356475.791   138504183.370        1112.014          39.983    26356489.282                         830.585          24.030  
E26                                                                  23333047.867   122615990.308         338.717          40.933    23333061.957    91563951.678         252.614          27.645  
E13                                                                  24957226.572   131151101.528       -2083.980          45.030    24957243.060    97937585.3231      -1556.674          26.951  
E31                                                                  25576172.684   134403677.255         840.763          40.436    25576190.072   100366470.5471        627.318          27.026  
C32  24237288.474   126209946.115        2982.965          44.656                                                                    24237309.760                        2248.691          27.327  
C33  25562652.644   133111434.036       -2672.677          42.744                                                                    25562693.116   100313474.251       -2014.923          32.713  
C36  25523566.603   132907903.209       -2607.383          37.615                                                                    25523598.081                       -1965.898          23.487  
C41  23094057.517   120256790.468          -9.014          46.007                                                                    23094077.303    90626117.763          -6.733          30.773  
C27  22391907.305   116600512.315       -1939.941          44.880                                                                    22391915.699                       -1462.120          29.073  
C45  25340581.980   131955093.0181       -528.953          36.515                                                                    25340593.372    99441925.5261       -398.507          28.031  
C30  21768734.419   113355508.761         953.319          45.063                                                                    21768750.608    85425258.141         718.572          26.414  
R21  20461876.737   109495640.853       -2350.290          44.383  
> 2025  4  1 15 17 21.9996966  0 23
G32  24025822.369   126256512.388        2912.656          47.240    24025841.856    94282559.429        2174.961          27.096  
G01  23644824.529   124254411.045        3172.923          43.434    23644843.715    92787445.120        2369.383          28.368  
G02  21641735.738   113728084.259        1832.690          45.623                                                                  
G23  23092689.264   121352940.347       -3161.485          42.724    23092713.247    90620766.341       -2360.930          32.657  
G08  20245402.899   106390276.066         152.263          42.052    20245408.895    79447332.922         113.314          28.993  
G10  21071332.920   110730592.816        -787.522          47.090    21071346.710                        -587.769          30.911  
G27  21036637.939   110548287.550       -2417.488          44.423    21036651.429    82552339.776       -1804.978          33.292  
E33                                                                  25985477.828   136554586.711        2296.240          40.151    25985491.319   101972653.299        1714.996          25.676  
E03                                                                  27629554.657   145194263.217       -1403.011          38.031    27629574.444   108424376.619       -1048.128          32.779  
E07                                                                  27430465.484   144148070.4651       2884.297          43.498    27430491.266   107643154.1191       2153.595          21.156  
E23                                                                  24962739.455   131180086.280       -1972.100          45.455    24962756.843    97959224.466       -1471.693          26.392  
E08                                                                  26356263.538   138503072.192        1110.549          42.033    26356277.928   103427697.8401        829.602          25.050  
E26                                                                  23332982.512   122615651.598         338.341          40.577    23332996.902    91563698.648         253.195          28.139  
E13                                                                  24957621.998   131153185.829       -2084.803          44.816    24957640.285    97939141.787       -1556.760          26.182  
E31                                                                  25576015.593   134402837.158         839.597          39.226    25576031.482   100365843.178         626.610          27.903  
C32  24236715.571   126206962.868        2982.981          44.105                                                                    24236737.156                        2248.541          22.547  
C33  25563165.289   133114107.888       -2674.123          42.798                                                                    25563206.360   100315489.149       -2015.259          32.466  
C36  25524063.658   132910510.646       -2607.914          35.718                                                                    25524098.135                       -1961.060          21.360  
C41  23094060.515   120256800.010         -10.178          46.427                                                                    23094079.701    90626124.892          -7.420          30.959  
C27  22392279.048   116602452.187       -1940.357          44.396                                                                    22392289.541    87872150.0661      -1462.177          27.768  
C45  25340687.807   131955622.549        -530.310          34.890                                                                    25340697.100    99442324.554        -398.964          28.155  
C30  21768549.147   113354555.906         952.418          44.798                                                                    21768567.734    85424540.200         717.537          26.325  
R21  20462318.032   109497991.568       -2351.191          45.312  
> 2025  4  1 15 17 22.9996967  0 23
G32  24025236.575   126253442.327        3069.466          46.124    24025259.059    94280266.779        2292.305          28.751  
G01  23644188.669   124251080.411        3330.165          42.655    23644210.853    92784957.900        2487.286          27.908  
G02  21641358.299   113726094.074        1989.750          45.297                                                                  
G23  23093259.169   121355944.417       -3004.490          43.111    23093284.652    90623009.612       -2243.344          32.638  
G08  20245341.742   106389966.675         308.756          43.132    20245350.735    79447101.830         230.956          28.902  
G10  21071454.036   110731222.974        -630.665          47.639    21071466.927                        -471.093          31.313  
G27  21037066.342   110550547.723       -2260.983          45.063    21037081.631    82554027.643       -1688.463          32.864  
E33                                                                  25985012.850   136552132.921        2453.347          40.403    25985024.242   101970820.923        1832.404          25.761  
E03                                                                  27629793.892   145195509.067       -1246.514          38.118    27629812.779   108425306.888        -930.428          32.709  
E23                                                                  24963086.315   131181901.121       -1815.322          45.584    24963104.003    97960579.785       -1355.185          28.663  
E07                                                                  27429885.385   144145028.695        3041.297          42.344    27429911.467                        2271.096          17.534  
E08                                                                  26356018.608   138501804.062        1267.568          41.814    26356036.596   103426750.802         946.629          23.897  
E26                                                                  23332888.377   122615155.821         495.308          40.693    23332902.168    91563328.548         369.338          26.521  
E13                                                                  24957989.843   131155112.898       -1927.345          44.979    24958007.231    97940580.822       -1439.332          26.260  
E31                                                                  25575824.925   134401840.265         996.129          39.523    25575841.713   100365098.692         744.470          28.586  
C32  24236109.990   126203824.051        3138.416          42.875                                                                    24236134.573                        2362.308          19.425  
C33  25563649.154   133116626.099       -2518.579          43.194                                                                    25563689.926   100317386.853       -1897.784          33.037  
C36  25524537.630   132912962.581       -2452.072          35.000                                                                    25524568.209   100163882.9441      -1844.203          18.325  
C41  23094030.835   120256654.211         145.147          46.742                                                                    23094050.322    90626015.054         109.413          31.431  
C27  22392622.310   116604236.415       -1784.672          43.308                                                                    22392630.105    87873494.663       -1344.505          27.925  
C45  25340762.755   131955996.791        -375.110          34.624                                                                    25340766.952    99442606.690        -282.747          27.453  
C30  21768337.793   113353447.510        1107.902          44.790                                                                    21768352.783    85423704.923         834.963          27.378  
R21  20462725.450   109500182.376       -2191.235          46.198  
> 2025  4  1 15 17 23.9996969  0 23
G32  24024682.858   126250530.159        2911.960          45.073    24024703.244    94278092.121        2174.840          28.737  
G01  23643581.889   124247907.613        3172.300          42.919    23643606.772    92782588.664        2369.137          27.333  
G02  21641010.540   113724261.870        1831.836          45.426                                                                  
G23  23093861.452   121359106.402       -3162.045          43.100    23093886.335    90625370.927       -2361.416          31.676  
G08  20245313.861   106389815.502         150.596          43.145    20245321.655    79446989.062         111.908          27.053  
G10  21071606.930   110732011.380        -788.794          47.490    21071617.123                        -588.689          31.060  
G27  21037526.523   110552965.992       -2418.699          45.203    21037541.213    82555833.453       -1806.147          31.959  
E33                                                                  25984573.654   136549836.928        2295.474          40.787    25984588.044   101969106.272        1715.081          25.255  
E03                                                                  27630060.107   145196912.956       -1404.131          38.794    27630078.395   108426355.254       -1048.198          32.348  
E23                                                                  24963461.655   131183874.028       -1973.471          45.698    24963478.144    97962053.123       -1473.410          28.599  
E07                                                                  27429334.967   144142144.696        2883.900          40.845    27429362.248                        2153.836          17.816  
