     3.04           OBSERVATION DATA    M: Mixed            RINEX VERSION / TYPE
Geo++ RINEX Logger  Geo++               20250226 214229 UTC PGM / RUN BY / DATE
************************************************************COMMENT
This file was generated by the Geo++ RINEX Logger App       COMMENT
for Android devices (Version 2.1.8). If you encounter       COMMENT
any issues, please send an email to android@geopp.de        COMMENT
Filtering Mode: BEST                                        COMMENT
************************************************************COMMENT
Hardware:       Broadcom, BCM4776, GLL ver. 154.20.24 611184COMMENT
Geo++                                                       MARKER NAME
GEODETIC                                                    MARKER TYPE
Geo++               Geo++                                   OBSERVER / AGENCY
NA                  NA                  NA                  REC # / TYPE / VERS
NA                  NA                                      ANT # / TYPE
  4167590.8574   860036.0231  4735797.0342                  APPROX POSITION XYZ
        0.0000        0.0000        0.0000                  ANTENNA: DELTA H/E/N
G    8 C1C L1C D1C S1C C5Q L5Q D5Q S5Q                      SYS / # / OBS TYPES
R    4 C1C L1C D1C S1C                                      SYS / # / OBS TYPES
E   12 C1B L1B D1B S1B C1C L1C D1C S1C C5Q L5Q D5Q S5Q      SYS / # / OBS TYPES
C   12 C2I L2I D2I S2I C1D L1D D1D S1D C5P L5P D5P S5P      SYS / # / OBS TYPES
J    8 C1C L1C D1C S1C C5Q L5Q D5Q S5Q                      SYS / # / OBS TYPES
  2025     2    26    21    42   47.9995850     GPS         TIME OF FIRST OBS
 24 R01  1 R02 -4 R03  5 R04  6 R05  1 R06 -4 R07  5 R08  6 GLONASS SLOT / FRQ #
    R09 -2 R10 -7 R11  0 R12 -1 R13 -2 R14 -7 R15  0 R16 -1 GLONASS SLOT / FRQ #
    R17  4 R18 -3 R19  3 R20  2 R21  4 R22 -3 R23  3 R24  2 GLONASS SLOT / FRQ #
G L1C                                                       SYS / PHASE SHIFT
G L5Q -0.25000                                              SYS / PHASE SHIFT
R L1C                                                       SYS / PHASE SHIFT
E L1B                                                       SYS / PHASE SHIFT
E L1C +0.50000                                              SYS / PHASE SHIFT
E L5Q -0.25000                                              SYS / PHASE SHIFT
C L2I                                                       SYS / PHASE SHIFT
J L1C                                                       SYS / PHASE SHIFT
J L5Q -0.25000                                              SYS / PHASE SHIFT
 C1C    0.000 C1P    0.000 C2C    0.000 C2P    0.000        GLONASS COD/PHS/BIS
                                                            END OF HEADER
> 2025  2 26 21 42 47.9995850  0 20
G01  21180407.609                       -1999.322          37.764    21180419.601                       -1491.636          31.000  
G03  19991892.701                        -271.234          40.319    19991902.894                        -201.920          34.745  
G04  21064602.279                        2559.812          34.315    21064616.969                        1914.861          26.910  
G06                                                                  24552883.892                        2781.802          33.164  
G09                                                                  23140848.224                        2834.375          34.846  
G28  23497884.853                        -465.134          42.202    23497899.243                        -346.723          40.591  
E19                                                                  25015098.807                       -1880.791          38.449    25015106.902                       -1404.407          29.266  
E04                                                                  23575865.668                        1104.416          43.369    23575876.760                         824.905          37.535  
E36                                                                  25816607.135                        2658.330          22.804    25816619.426                        1988.228          20.920  
E06                                                                  24495666.103                        2401.695          40.787    24495682.592                        1793.958          27.573  
E09                                                                  26387775.323                        3142.562          39.515    26387789.713                        2346.620          35.029  
E10                                                                  23947048.004                       -1045.210          42.243    23947058.496                        -780.364          39.479  
E11                                                                  23627641.924                         447.700          33.062    23627650.318                         334.630          24.808  
E12                                                                  25324740.647                       -2025.885          41.513    25324752.938                       -1517.539          19.579  
C32  21886677.269                        -215.245          39.903                                                                    21886688.361                        -162.972          30.318  
C20  23801025.993                        2636.308          45.173                                                                    23801035.886                        1987.070          35.564  
C39  39091428.567                         127.391          36.112                                                                    39091439.360                          95.458          37.824  
C41  24923709.775                       -2515.565          41.119                                                                    24923728.662                       -1894.959          39.803  
C27                                                                                                                                  25425777.001                       -2441.253          32.862  
C30  22522555.060                       -1639.062          39.632                                                                    22522571.848                       -1237.599          25.132  
> 2025  2 26 21 42 48.9995852  0 20
G01  21180862.694                       -2378.501          38.113    21180872.887                       -1775.975          32.203  
G03  19992015.616                        -651.916          40.312    19992027.307                        -485.779          34.702  
G04  21064185.868                        2181.137          35.415    21064201.457                        1629.490          29.844  
G06                                                                  24552247.733                        2497.938          32.384  
G09                                                                  23140199.173                        2550.513          35.299  
G28  23498045.242                        -846.637          41.682    23498060.231                        -631.071          40.926  
E19                                                                  25015527.810                       -2261.091          38.379    25015538.003                       -1688.402          29.858  
E04                                                                  23575728.063                         724.041          43.238    23575739.155                         541.368          38.270  
E36                                                                                                                                  25816181.429                        1706.074          20.110  
E06                                                                  24495282.369                        2021.227          41.553    24495298.558                        1509.281          30.920  
E09                                                                  26387250.387                        2761.935          40.001    26387264.477                        2062.786          35.674  
E10                                                                  23947319.915                       -1425.708          42.522    23947330.408                       -1064.859          40.364  
E11                                                                  23627629.632                          68.530          33.447    23627638.626                          51.147          23.662  
E12                                                                  25325198.430                       -2406.203          41.948    25325208.923                       -1801.800          19.155  
C32  21886789.391                        -593.510          39.499                                                                    21886801.982                        -446.724          30.271  
C20  23800593.992                        2258.870          44.523                                                                    23800602.086                        1702.811          35.695  
C39  39091472.637                        -251.597          35.797                                                                    39091487.626                        -188.037          38.071  
C41  24924265.290                       -2891.944          41.266                                                                    24924284.777                       -2178.776          40.149  
C27                                                                                                                                  25426471.320                       -2725.050          32.974  
C30  22522944.790                       -2018.073          40.944                                                                    22522960.079                       -1520.339          28.661  
> 2025  2 26 21 42 49.9995853  0 19
G01  21181281.204                       -2219.938          38.162    21181295.894                       -1658.402          36.594  
G03  19992109.151                        -494.903          42.294    19992121.143                        -367.611          38.396  
G04  21063740.976                        2340.472          31.626    21063756.565                        1747.604          33.904  
G09                                                                  23139518.944                        2667.652          33.931  
G28  23498180.448                        -688.441          41.806    23498191.241                        -513.511          41.277  
E19                                                                  25015926.534                       -2103.616          37.356    25015938.826                       -1569.233          30.729  
E04                                                                  23575561.978                         881.075          41.724    23575571.871                         659.169          39.018  
E36                                                                                                                                  25815716.152                        1823.876          22.980  
E06                                                                  24494868.056                        2177.969          40.869    24494884.544                        1627.251          31.587  
E09                                                                  26386695.771                        2919.053          38.730    26386708.662                        2180.096          33.409  
E10                                                                  23947560.949                       -1268.315          43.705    23947571.141                        -946.103          38.070  
E11                                                                  23627587.062                         226.436          34.081    23627596.355                         168.967          26.681  
E12                                                                                                                                  25325636.427                       -1678.509          24.443  
C32  21886872.434                        -437.536          40.830                                                                    21886887.423                        -328.621          34.753  
C20  23800130.513                        2415.343          43.746                                                                    23800138.007                        1820.828          40.211  
C39  39091495.721                         -97.793          35.783                                                                    39091505.914                         -70.835          38.575  
C41  24924789.028                       -2737.219          41.434                                                                    24924809.413                       -2060.900          39.590  
C27                                                                                                                                  25427136.260                       -2607.439          32.983  
C30  22523303.641                       -1862.918          39.170                                                                    22523317.432                       -1403.211          33.214  
> 2025  2 26 21 42 50.9995854  0 20
G01  21181704.211                       -2222.951          39.081    21181718.002                       -1658.717          36.789  
G03  19992204.185                        -494.135          43.972    19992214.678                        -367.957          40.589  
G04                                                                  21063311.073                        1747.167          34.871  
G06                                                                  24550915.155                        2616.071          28.228  
G09                                                                  23138839.615                        2667.893          32.243  
G28  23498310.858                        -688.541          42.401    23498322.550                        -513.750          41.911  
E19                                                                  25016326.757                       -2102.901          37.872    25016338.449                       -1569.851          30.395  
E36                                                                                                                                  25815251.773                        1825.168          20.933  
E04                                                                  23575392.595                         881.504          42.564    23575404.287                         659.124          38.421  
E06                                                                  24494455.541                        2178.766          40.877    24494469.332                        1627.387          32.905  
E09                                                                  26386140.255                        2920.056          40.300    26386152.846                        2180.318          31.284  
E10                                                                  23947801.082                       -1268.239          42.739    23947812.774                        -946.874          38.264  
E11                                                                  23627543.292                         225.995          36.478    23627552.886                         169.223          29.491  
E12                                                                  25326054.637                       -2248.660          42.156    25326066.629                       -1679.174          25.975  
C32  21886956.975                        -435.699          43.173                                                                    21886971.065                        -328.796          37.269  
C20  23799664.335                        2416.594          43.454                                                                    23799673.329                        1821.415          40.288  
C39  39091511.010                         -93.948          35.464                                                                    39091524.201                         -70.484          39.670  
C41  24925315.163                       -2735.619          42.265                                                                    24925334.950                       -2060.459          38.364  
C27                                                                                                                                  25427800.600                       -2606.888          32.978  
C30  22523660.394                       -1861.411          38.980                                                                    22523675.384                       -1403.513          34.388  
> 2025  2 26 21 42 51.9995855  0 20
G01  21182127.518                       -2223.040          38.329    21182141.009                       -1658.828          36.914  
G03  19992297.720                        -495.391          43.577    19992308.813                        -368.377          40.659  
G04                                                                  21062866.481                        1746.708          34.646  
G06                                                                  24550247.218                        2616.061          30.494  
G09                                                                  23138159.386                        2668.531          33.482  
G28  23498444.565                        -689.892          41.874    23498453.559                        -514.166          42.171  
E19                                                                  25016727.580                       -2102.908          38.745    25016737.773                       -1570.695          30.167  
E04                                                                  23575225.311                         881.378          42.767    23575236.703                         659.123          38.565  
E06                                                                  24494039.429                        2178.762          40.023    24494054.419                        1626.970          32.716  
E09                                                                  26385584.440                        2919.811          40.391    26385597.031                        2181.204          30.698  
E10                                                                  23948043.015                       -1268.216          43.211    23948055.007                        -946.641          37.855  
E11                                                                  23627501.921                         224.867          37.542    23627510.915                         167.737          29.647  
E12                                                                  25326482.741                       -2248.382          42.343    25326494.133                       -1678.286          25.850  
C32  21887041.516                        -436.854          43.130                                                                    21887055.007                        -328.874          38.043  
C20  23799202.955                        2415.511          42.607                                                                    23799210.449                        1821.272          40.198  
C39  39091532.895                         -92.726          36.248                                                                    39091541.889                         -70.610          39.504  
C41  24925840.400                       -2733.449          42.276                                                                    24925860.186                       -2060.425          38.585  
C27                                                                                                                                  25428465.240                       -2606.472          32.825  
C29                                                                                                                                  23083172.952                        1092.336          23.344  
C30  22524021.344                       -1862.402          38.946                                                                    22524033.336                       -1403.682          33.919  
> 2025  2 26 21 42 52.9995857  0 20
G01  21182583.203                       -2379.867          39.487    21182593.995                       -1777.114          36.243  
G03  19992420.935                        -652.425          43.677    19992432.627                        -486.342          40.857  
G04                                                                  21062451.868                        1628.826          34.275  
G06                                                                  24549611.658                        2498.644          34.897  
G09                                                                  23137508.836                        2550.306          34.496  
G28  23498604.055                        -847.927          42.785    23498614.548                        -631.996          41.109  
E19                                                                  25017155.983                       -2260.993          37.667    25017168.275                       -1687.956          30.636  
E04                                                                  23575088.606                         723.276          42.515    23575098.799                         540.711          38.446  
E06                                                                  24493655.695                        2020.451          39.689    24493670.085                        1509.416          33.057  
E09                                                                  26385057.105                        2762.169          38.826    26385072.095                        2062.839          32.641  
E10                                                                  23948315.826                       -1425.968          43.148    23948326.019                       -1064.885          38.683  
E11                                                                  23627489.629                          66.847          37.189    23627498.023                          50.118          31.935  
E12                                                                  25326941.423                       -2406.371          42.563    25326952.216                       -1797.176          25.137  
C32  21887152.739                        -592.682          41.972                                                                    21887169.228                        -447.003          38.961  
C20  23798769.455                        2258.441          43.477                                                                    23798776.350                        1703.347          39.245  
C39  39091576.964                        -250.784          36.479                                                                    39091590.755                        -187.998          39.612  
C41  24926395.016                       -2889.564          41.375                                                                    24926415.402                       -2178.029          39.481  
C27                                                                                                                                  25429158.960                       -2724.530          31.323  
C29                                                                                                                                  23082925.623                         973.592          37.669  
C30  22524409.576                       -2019.367          38.829                                                                    22524421.567                       -1522.175          33.647  
> 2025  2 26 21 42 53.9995858  0 20
G01  21183005.910                       -2220.411          39.123    21183016.703                       -1659.354          35.784  
G03  19992517.468                        -494.377          43.803    19992527.361                        -368.632          41.049  
G04                                                                  21062006.676                        1746.396          34.160  
G06                                                                  24548945.219                        2616.085          38.122  
G09                                                                  23136829.206                        2667.547          34.037  
G28  23498734.465                        -689.315          42.207    23498745.857                        -514.989          41.632  
E19                                                                  25017559.804                       -2103.259          37.849    25017569.697                       -1570.151          31.861  
E04                                                                  23574921.621                         880.769          43.039    23574930.915                         657.997          38.253  
E06                                                                  24493242.581                        2177.812          39.890    24493255.172                        1626.565          33.209  
E09                                                                  26384503.089                        2919.676          39.201    26384515.680                        2180.340          32.933  
E10                                                                  23948551.163                       -1268.574          42.846    23948567.652                        -947.447          39.109  
E11                                                                  23627448.258                         224.659          37.213    23627455.753                         167.916          31.695  
E12                                                                  25327368.328                       -2248.789          41.945    25327380.319                       -1679.064          26.189  
C32  21887239.679                        -439.034          41.462                                                                    21887253.470                        -329.500          38.682  
C20  23798303.877                        2414.729          43.691                                                                    23798311.672                        1821.290          39.111  
C39  39091594.352                         -95.964          37.435                                                                    39091608.443                         -71.664          38.661  
C41  24926920.552                       -2735.228          40.978                                                                    24926940.338                       -2060.531          39.042  
C27                                                                                                                                  25429823.300                       -2607.304          31.495  
C29                                                                                                                                  23082647.416                        1090.211          37.667  
C30  22524767.528                       -1863.494          39.314                                                                    22524779.520                       -1404.347          33.706  
> 2025  2 26 21 42 54.9995859  0 21
G01  21183424.720                       -2221.501          41.079    21183440.010                       -1659.411          36.027  
G03  19992613.702                        -495.185          44.816    19992621.196                        -369.205          40.534  
G04  21061550.692                        2336.366          36.883    21061562.084                        1745.977          33.722  
G06                                                                  24548278.181                        2616.204          39.057  
G09                                                                  23136149.577                        2667.456          33.342  
G28  23498864.275                        -690.014          43.536    23498877.765                        -515.090          41.004  
E19                                                                  25017959.427                       -2103.393          38.266    25017969.320                       -1570.631          31.820  
E04                                                                  23574754.037                         880.483          44.111    23574763.331                         657.795          37.790  
E36                                                                  25813423.639                        2442.141          32.710    25813426.936                        1824.883          30.955  
E06                                                                  24492827.968                        2178.250          40.625    24492840.559                        1625.836          31.495  
E09                                                                  26383945.774                        2919.593          40.949    26383960.464                        2180.779          32.818  
E10                                                                  23948797.892                       -1268.765          43.907    23948809.284                        -947.100          38.497  
E11                                                                  23627405.388                         224.648          38.141    23627412.283                         167.371          31.696  
E12                                                                  25327796.731                       -2248.874          43.145    25327807.224                       -1679.182          27.386  
C32  21887324.221                        -438.405          43.560                                                                    21887337.112                        -329.482          38.658  
C20  23797841.897                        2416.387          45.452                                                                    23797847.893                        1821.041          38.360  
C39  39091616.237                         -94.952          40.189                                                                    39091626.430                         -70.138          37.092  
C41  24927447.287                       -2735.146          42.668                                                                    24927465.575                       -2060.197          38.856  
C27                                                                                                                                  25430488.239                       -2606.500          32.584  
C29                                                                                                                                  23082369.508                        1090.362          37.566  
C30  22525127.279                       -1863.833          40.990                                                                    22525137.172                       -1404.004          33.022  
> 2025  2 26 21 42 55.9995860  0 21
G01  21183845.929                       -2222.118          40.721    21183862.717                       -1659.479          35.921  
G03  19992709.335                        -495.077          44.639    19992715.031                        -368.361          40.332  
G04  21061105.500                        2337.493          36.602    21061116.892                        1746.386          33.661  
G06                                                                  24547612.342                        2616.884          39.361  
G09                                                                  23135469.348                        2668.220          32.743  
G28  23498996.483                        -692.306          43.374    23499009.075                        -515.049          40.232  
E19                                                                  25018357.851                       -2102.622          38.434    25018369.243                       -1569.999          31.787  
E04                                                                  23574584.954                         880.839          43.914    23574596.347                         657.583          37.849  
E36                                                                  25812956.262                        2442.072          32.066    25812961.958                        1824.242          32.501  
E06                                                                  24492413.055                        2178.257          40.255    24492426.546                        1627.021          31.783  
E09                                                                  26383388.760                        2920.180          40.356    26383404.649                        2181.065          33.079  
E10                                                                  23949037.726                       -1267.860          43.697    23949051.517                        -947.185          38.792  
E11                                                                  23627362.218                         224.527          37.899    23627369.712                         167.698          31.246  
E12                                                                  25328223.935                       -2248.514          42.978    25328235.028                       -1678.605          26.887  
C32  21887407.563                        -438.133          43.106                                                                    21887421.353                        -329.478          38.623  
C20  23797378.118                        2416.029          45.447                                                                    23797384.414                        1820.958          38.873  
C39  39091633.026                         -95.683          38.534                                                                    39091645.017                         -70.431          38.484  
C41  24927972.224                       -2734.564          42.308                                                                    24927990.511                       -2060.124          39.026  
C27                                                                                                                                  25431151.980                       -2606.585          32.048  
C29                                                                                                                                  23082091.600                        1090.410          37.899  
C30  22525485.531                       -1864.123          40.997                                                                    22525494.824                       -1404.700          33.483  
> 2025  2 26 21 42 56.9995861  0 21
G01  21184270.735                       -2223.755          40.629    21184286.024                       -1659.424          36.395  
G03  19992803.170                        -494.246          45.189    19992809.466                        -368.693          40.675  
G04  21060657.610                        2337.785          37.231    21060671.700                        1745.736          33.944  
G06                                                                  24546944.704                        2616.937          39.302  
G09                                                                  23134790.318                        2668.175          33.292  
G28  23499127.493                        -691.804          44.190    23499140.683                        -515.190          40.169  
E19                                                                  25018759.573                       -2103.694          38.482    25018769.766                       -1570.689          31.475  
E36                                                                  25812485.288                        2442.321          31.970    25812496.980                        1824.435          33.209  
E04                                                                  23574417.071                         880.181          44.268    23574427.863                         657.564          38.304  
E06                                                                  24491999.042                        2177.789          40.706    24492012.533                        1626.666          31.873  
E09                                                                  26382833.544                        2920.033          41.101    26382848.534                        2180.743          32.882  
E10                                                                  23949281.457                       -1268.955          43.951    23949292.550                        -947.239          39.079  
E11                                                                  23627317.848                         224.332          38.375    23627326.542                         167.357          31.052  
E12                                                                  25328653.538                       -2248.741          43.287    25328663.731                       -1678.942          26.893  
C32  21887491.505                        -437.866          43.665                                                                    21887504.996                        -329.734          38.632  
C20  23796913.739                        2415.201          45.958                                                                    23796920.335                        1820.912          39.019  
C39  39091651.313                         -94.647          39.879                                                                    39091662.705                         -69.995          38.663  
C41  24928496.561                       -2733.751          42.449                                                                    24928516.347                       -2060.062          39.461  
C27                                                                                                                                  25431816.020                       -2606.312          32.281  
C29                                                                                                                                  23081813.993                        1090.074          37.842  
C30  22525844.682                       -1864.783          41.580                                                                    22525853.076                       -1404.677          33.192  
> 2025  2 26 21 42 57.9995863  0 21
G01  21184718.025                       -2381.688          40.467    21184739.010                       -1777.574          36.174  
G03  19992924.586                        -652.370          44.979    19992934.180                        -486.990          40.673  
G04  21060239.400                        2180.348          37.500    21060256.788                        1627.639          33.616  
G06                                                                  24546308.244                        2498.606          39.240  
G09                                                                  23134140.068                        2550.127          33.606  
G28  23499288.481                        -850.191          44.021    23499301.972                        -634.198          39.937  
E19                                                                  25019189.775                       -2261.654          38.854    25019199.968                       -1688.502          31.260  
E36                                                                  25812049.990                        2284.852          32.182    25812062.881                        1706.682          33.116  
E04                                                                  23574279.466                         721.735          44.263    23574291.458                         539.196          38.038  
E06                                                                  24491614.708                        2019.771          40.430    24491627.899                        1508.887          31.677  
E09                                                                  26382308.008                        2761.798          41.097    26382323.298                        2062.692          33.120  
E10                                                                  23949551.570                       -1426.889          44.253    23949564.162                       -1065.681          38.762  
E11                                                                  23627306.456                          65.748          38.359    23627314.251                          49.709          31.749  
E12                                                                  25329111.021                       -2407.241          43.394    25329121.214                       -1797.837          27.020  
C32  21887607.824                        -594.377          43.827                                                                    21887619.816                        -448.031          38.783  
C20  23796480.839                        2258.057          46.114                                                                    23796486.235                        1702.952          38.854  
C39  39091702.577                        -250.310          40.121                                                                    39091710.672                        -188.609          38.583  
C41  24929051.777                       -2891.234          42.577                                                                    24929071.263                       -2177.962          39.541  
C27                                                                                                                                  25432510.639                       -2724.192          32.753  
C29                                                                                                                                  23081566.664                         972.210          37.970  
C30  22526233.813                       -2021.574          41.703                                                                    22526241.008                       -1522.954          33.519  
> 2025  2 26 21 42 58.9995864  0 21
G01  21185144.929                       -2223.345          40.573    21185162.317                       -1660.640          35.978  
G03  19993017.222                        -496.411          44.941    19993027.715                        -370.008          40.734  
G04  21059793.308                        2337.080          37.430    21059812.195                        1745.052          33.583  
G06                                                                  24545641.806                        2615.945          39.443  
G09                                                                  23133460.139                        2667.448          33.160  
G28  23499420.690                        -692.249          44.224    23499433.880                        -516.645          40.485  
E19                                                                  25019589.399                       -2104.149          38.627    25019600.791                       -1571.069          31.800  
E04                                                                  23574112.182                         879.057          44.252    23574123.874                         656.981          38.204  
E36                                                                  25811586.211                        2442.452          32.512    25811598.502                        1824.162          33.171  
E06                                                                  24491200.395                        2177.072          40.646    24491213.586                        1626.083          31.829  
E09                                                                  26381750.994                        2919.440          41.253    26381767.482                        2180.351          33.025  
E10                                                                  23949795.002                       -1269.622          44.354    23949806.094                        -948.283          38.459  
E11                                                                  23627263.586                         223.390          38.345    23627272.280                         166.830          31.903  
E12                                                                  25329538.226                       -2249.857          43.387    25329549.018                       -1679.597          25.881  
C32  21887690.867                        -438.718          43.808                                                                    21887704.358                        -330.107          38.684  
C20  23796016.760                        2413.955          46.219                                                                    23796023.056                        1820.397          38.784  
C39  39091717.867                         -94.519          39.532                                                                    39091729.259                         -70.837          38.827  
C41  24929574.914                       -2735.149          42.269                                                                    24929597.099                       -2060.242          39.232  
C27                                                                                                                                  25433174.680                       -2607.007          32.000  
C29                                                                                                                                  23081290.555                        1088.984          37.814  
C30  22526589.367                       -1865.271          41.725                                                                    22526599.260                       -1405.628          33.320  
> 2025  2 26 21 42 59.9995865  0 21
G01  21185569.136                       -2224.591          40.629    21185585.624                       -1661.066          35.989  
G03  19993109.858                        -496.702          44.709    19993122.749                        -370.256          40.782  
G04  21059351.115                        2334.875          37.237    21059367.603                        1744.222          33.193  
G06                                                                  24544975.667                        2616.319          39.114  
G09                                                                  23132781.409                        2667.269          33.338  
G28  23499551.999                        -693.613          44.202    23499565.489                        -517.203          40.164  
E19                                                                  25019987.823                       -2104.786          38.603    25020001.014                       -1571.358          31.900  
E36                                                                  25811120.333                        2442.240          32.561    25811133.824                        1823.792          32.650  
E04                                                                  23573944.898                         878.485          44.073    23573957.189                         656.542          38.236  
E06                                                                  24490787.581                        2176.638          40.521    24490799.572                        1625.410          31.766  
E09                                                                  26381196.078                        2918.884          41.336    26381212.567                        2179.971          32.610  
E10                                                                  23950035.136                       -1270.053          44.301    23950048.027                        -948.344          38.743  
E11                                                                  23627221.915                         222.545          38.282    23627230.309                         166.704          31.764  
E12                                                                  25329966.029                       -2249.669          43.299    25329977.422                       -1679.743          27.328  
C32  21887776.907                        -439.660          43.834                                                                    21887788.000                        -330.766          38.760  
C20  23795552.082                        2414.611          46.010                                                                    23795559.277                        1820.146          39.122  
C39  39091738.852                         -96.008          39.823                                                                    39091747.546                         -71.419          38.638  
C41  24930099.551                       -2735.067          42.339                                                                    24930121.736                       -2060.664          39.259  
C27                                                                                                                                  25433839.319                       -2606.869          32.036  
C29                                                                                                                                  23081012.647                        1088.599          38.171  
C30  22526950.017                       -1866.338          41.823                                                                    22526957.812                       -1406.175          33.600  
> 2025  2 26 21 43  0.9995866  0 21
G01  21185993.642                       -2224.901          40.736    21186008.931                       -1661.450          35.922  
G03  19993203.393                        -497.649          44.654    19993217.184                        -370.666          40.752  
G04  21058908.621                        2336.676          37.566    21058923.611                        1743.808          33.318  
G06                                                                  24544308.629                        2616.060          39.267  
G09                                                                  23132101.779                        2667.188          33.403  
G28  23499685.107                        -694.423          44.124    23499698.297                        -517.889          40.253  
E19                                                                  25020390.744                       -2104.576          38.545    25020401.836                       -1571.750          31.385  
E04                                                                  23573777.314                         877.987          44.200    23573790.205                         656.324          38.527  
E36                                                                  25810655.655                        2441.976          31.875    25810669.146                        1823.949          33.333  
E06                                                                  24490372.368                        2176.307          40.597    24490384.959                        1625.127          31.375  
E09                                                                  26380641.462                        2918.873          41.595    26380657.351                        2179.816          33.241  
E10                                                                  23950277.368                       -1270.861          44.187    23950289.659                        -948.666          38.854  
E11                                                                  23627176.946                         222.466          38.390    23627187.438                         166.418          31.998  
E12                                                                  25330392.934                       -2250.139          43.200    25330405.525                       -1679.157          26.914  
C32  21887859.950                        -440.459          43.863                                                                    21887872.841                        -331.279          38.769  
C20  23795087.704                        2415.291          45.967                                                                    23795095.498                        1819.763          38.886  
C39  39091753.242                         -94.899          39.636                                                                    39091765.834                         -71.326          38.490  
C41  24930624.488                       -2734.493          42.287                                                                    24930646.672                       -2061.047          39.163  
C27                                                                                                                                  25434503.660                       -2607.043          32.388  
C29                                                                                                                                  23080734.740                        1088.249          37.902  
C30  22527308.569                       -1867.302          41.866                                                                    22527316.663                       -1406.342          33.277  
> 2025  2 26 21 43  1.9995868  0 21
G01  21186449.626                       -2383.158          40.758    21186462.217                       -1779.161          35.861  
G03  19993329.606                        -655.285          44.785    19993341.897                        -488.262          40.736  
G04  21058494.608                        2175.625          37.296    21058509.597                        1626.537          33.619  
G06                                                                  24543673.069                        2498.770          39.538  
G09                                                                  23131452.429                        2549.829          33.703  
G28  23499847.894                        -851.951          44.157    23499860.185                        -635.926          40.174  
E19                                                                  25020821.546                       -2262.855          38.899    25020832.638                       -1689.234          31.577  
E36                                                                  25810220.956                        2284.124          31.831    25810234.746                        1706.297          33.457  
E04                                                                  23573641.208                         720.437          44.102    23573652.900                         538.623          38.428  
E06                                                                  24489989.233                        2018.731          40.499    24490001.225                        1507.800          30.855  
E09                                                                  26380117.125                        2761.385          41.540    26380131.515                        2062.719          33.182  
E10                                                                  23950547.181                       -1428.278          44.161    23950562.770                       -1066.531          38.981  
E11                                                                  23627167.652                          64.731          38.179    23627174.847                          48.884          32.534  
E12                                                                  25330851.017                       -2407.782          43.010    25330863.908                       -1797.339          26.908  
C32  21887974.471                        -596.500          43.914                                                                    21887987.362                        -448.468          38.813  
C20  23794655.403                        2258.883          45.987                                                                    23794661.698                        1702.475          38.782  
C39  39091803.907                        -250.754          39.803                                                                    39091814.100                        -188.769          38.800  
C41  24931181.202                       -2890.408          42.393                                                                    24931202.188                       -2178.169          39.439  
C27                                                                                                                                  25435197.979                       -2724.566          32.345  
C29                                                                                                                                  23080487.711                         970.887          37.761  
C30  22527697.400                       -2023.842          41.963                                                                    22527704.894                       -1523.905          33.366  
> 2025  2 26 21 43  2.9995869  0 21
G01  21186871.734                       -2225.718          40.762    21186885.524                       -1661.718          35.663  
G03  19993427.038                        -498.326          44.856    19993436.332                        -370.813          40.805  
G04  21058046.418                        2334.188          37.667    21058064.705                        1743.764          33.607  
G06                                                                  24543005.731                        2616.422          39.616  
G09                                                                  23130772.200                        2667.024          33.418  
G28  23499979.803                        -695.178          44.046    23499992.394                        -518.181          40.089  
E19                                                                  25021220.869                       -2105.483          38.483    25021233.161                       -1571.736          31.753  
E36                                                                  25809756.278                        2441.473          31.825    25809769.768                        1823.759          32.776  
E04                                                                  23573472.425                         877.363          44.342    23573485.316                         655.650          38.084  
E06                                                                  24489573.421                        2175.810          40.280    24489586.912                        1625.404          31.052  
E09                                                                  26379562.209                        2918.905          41.716    26379576.000                        2179.987          32.906  
E10                                                                  23950790.613                       -1271.237          44.089    23950803.504                        -948.952          38.906  
E11                                                                  23627124.782                         221.876          38.235    23627132.277                         166.135          32.147  
